time,lat,lon,alt,vn,ve,vd,roll,pitch,yaw
84844.485000000,0.785398163,0.000000000,-0.000125660,-0.003089675,0.010853239,0.005874687,3.141587243,3.141540418,-2.695919450
84844.513000000,0.785398163,0.000000000,-0.000508326,-0.004784197,0.025004262,0.013634285,0.000026384,0.000042461,0.320645677
84844.537000000,0.785398163,0.000000000,-0.001023636,-0.003835085,0.038197833,0.020506381,0.000015656,0.000031418,0.227201086
84844.565000000,0.785398163,0.000000001,-0.001828702,-0.019400650,0.050685400,0.028642761,0.000174820,0.000056516,0.502215006
84844.587000000,0.785398163,0.000000001,-0.002614068,-0.037558808,0.059211879,0.035166429,0.000363229,0.000132300,0.720077323
84844.611000000,0.785398163,0.000000001,-0.003644124,-0.057663121,0.066779000,0.041963270,0.000666118,0.000198464,0.899092717
84844.635000000,0.785398162,0.000000002,-0.004874666,-0.079274193,0.072864550,0.049052311,0.001159351,0.000368953,1.048718964
84844.659000000,0.785398162,0.000000002,-0.006249333,-0.101291515,0.077413959,0.056216816,0.001823027,0.000658256,1.175770213
84844.683000000,0.785398161,0.000000003,-0.007792015,-0.123676351,0.080125971,0.062967889,0.002611061,0.001052350,1.285956252
84844.704000000,0.785398161,0.000000003,-0.009338485,-0.144662742,0.081698670,0.069397593,0.003557977,0.001635187,1.382490979
84844.729000000,0.785398160,0.000000003,-0.011318092,-0.167395875,0.083485978,0.076370835,0.004673781,0.002390790,1.467115491
84844.753000000,0.785398159,0.000000004,-0.013443879,-0.190209840,0.085156167,0.083553351,0.005987985,0.003301068,1.542063959
84844.780000000,0.785398158,0.000000004,-0.016061247,-0.215455831,0.087615616,0.091843799,0.007491139,0.004544961,1.609714464
84844.807000000,0.785398156,0.000000005,-0.018899410,-0.241228118,0.090104113,0.100272111,0.009172474,0.005998758,1.671273619
84844.827000000,0.785398155,0.000000006,-0.021247998,-0.264125218,0.092377302,0.106633066,0.011023694,0.007714741,1.727745347
84844.842000000,0.785398154,0.000000006,-0.023046411,-0.283990644,0.095024320,0.111506718,0.012959771,0.009686174,1.779779847
84844.856000000,0.785398153,0.000000006,-0.024959849,-0.304477194,0.098323775,0.116413932,0.015033461,0.011855973,1.828012121
84844.873000000,0.785398152,0.000000007,-0.027262482,-0.327254259,0.102999369,0.122032808,0.017180502,0.014309122,1.872020699
84844.886000000,0.785398151,0.000000008,-0.029182030,-0.348389056,0.108514486,0.126855082,0.019416137,0.016932489,1.912474446
84844.897000000,0.785398150,0.000000008,-0.031014943,-0.369439131,0.114941874,0.131279032,0.021709144,0.019738578,1.949961985
84844.909000000,0.785398149,0.000000009,-0.032931069,-0.391415572,0.122295562,0.135997578,0.024086789,0.022763028,1.984961699
84844.924000000,0.785398147,0.000000010,-0.035459696,-0.417487389,0.131489653,0.141534332,0.026547014,0.026085768,2.017960980
84844.936000000,0.785398146,0.000000011,-0.037560764,-0.442170532,0.141268078,0.146255771,0.029074888,0.029614027,2.049175251
84844.950000000,0.785398144,0.000000012,-0.040141958,-0.470311597,0.152525466,0.151875329,0.031697039,0.033415442,2.078809572
84844.962000000,0.785398142,0.000000013,-0.042641978,-0.499326587,0.164982864,0.157261725,0.034373417,0.037513730,2.107509433
84844.974000000,0.785398140,0.000000014,-0.045055382,-0.529167870,0.178214692,0.162615426,0.037081813,0.041871207,2.135277379
84844.986000000,0.785398139,0.000000015,-0.047585199,-0.560961101,0.192642191,0.168050192,0.039862333,0.046496264,2.162131968
84845.001000000,0.785398136,0.000000017,-0.050885415,-0.598582886,0.208979990,0.174720773,0.042715532,0.051453868,2.188114714
84845.018000000,0.785398133,0.000000019,-0.054583693,-0.640469305,0.227421531,0.182167812,0.045695526,0.056808597,2.212982270
84845.029000000,0.785398131,0.000000021,-0.057505010,-0.679821689,0.246244373,0.188132312,0.048747691,0.062484741,2.236812456
84845.042000000,0.785398128,0.000000022,-0.060791114,-0.723290502,0.266980025,0.194742610,0.051868933,0.068458473,2.259708160
84845.054000000,0.785398125,0.000000025,-0.064074559,-0.768686760,0.288885516,0.201638403,0.055060519,0.074770366,2.281731089
84845.070000000,0.785398122,0.000000027,-0.068427946,-0.822695977,0.313908985,0.210298610,0.058400745,0.081552691,2.302876194
84845.086000000,0.785398118,0.000000030,-0.073002887,-0.881175427,0.341083048,0.219094009,0.061883461,0.088767896,2.323174831
84845.103000000,0.785398113,0.000000033,-0.078026732,-0.945289901,0.370651335,0.229011051,0.065484637,0.096527613,2.342743944
84845.120000000,0.785398108,0.000000037,-0.083277246,-1.014754967,0.402699392,0.239265561,0.069188232,0.104888150,2.361740086
84845.133000000,0.785398104,0.000000040,-0.087862096,-1.083376990,0.435725539,0.248667436,0.072989748,0.113673212,2.380074937
84845.144000000,0.785398099,0.000000043,-0.092393262,-1.155039903,0.470080348,0.258309257,0.076839014,0.122871520,2.397831772
84845.156000000,0.785398094,0.000000047,-0.097133750,-1.230953116,0.506410922,0.268274677,0.080772028,0.132516877,2.415099931
84845.171000000,0.785398087,0.000000052,-0.103184303,-1.319180318,0.546665863,0.280873362,0.084820864,0.142775851,2.431962193
84845.183000000,0.785398081,0.000000056,-0.108525947,-1.406582024,0.587545628,0.292426651,0.088967130,0.153553855,2.448297833
84845.197000000,0.785398074,0.000000061,-0.114950418,-1.504720314,0.632006909,0.306065809,0.093232252,0.164936481,2.464186720
84845.215000000,0.785398065,0.000000067,-0.123014890,-1.618919061,0.681654524,0.322573887,0.097692795,0.177107120,2.479704876
84845.231000000,0.785398055,0.000000074,-0.131243928,-1.739761880,0.733922622,0.339850651,0.102337694,0.190162475,2.494745676
84845.246000000,0.785398045,0.000000081,-0.139561512,-1.866918491,0.788851622,0.358046099,0.107141020,0.203957363,2.509276222
84845.258000000,0.785398036,0.000000087,-0.147032435,-1.993435530,0.844276621,0.375530557,0.112071879,0.218377405,2.523322148
84845.272000000,0.785398025,0.000000095,-0.156001748,-2.134944019,0.904551277,0.395957187,0.117160654,0.233592670,2.536968413
84845.285000000,0.785398013,0.000000102,-0.164997084,-2.282240606,0.967132458,0.417042266,0.122404669,0.249547293,2.550087290
84845.299000000,0.785398000,0.000000111,-0.175234843,-2.443250021,1.034273315,0.441156782,0.127882116,0.266358419,2.562726749
84845.310000000,0.785397987,0.000000119,-0.185019319,-2.606869032,1.102626014,0.465211554,0.133544436,0.283904697,2.574759235
84845.325000000,0.785397972,0.000000130,-0.197342725,-2.793398244,1.177919783,0.494563182,0.139507421,0.302452532,2.586276889
84845.342000000,0.785397954,0.000000141,-0.211414237,-2.998737631,1.259411113,0.528109461,0.145791438,0.322184819,2.596041437
84845.358000000,0.785397934,0.000000153,-0.226726876,-3.220382151,1.345951877,0.565060726,0.152540944,0.343140834,2.606408587
84845.376000000,0.785397912,0.000000167,-0.244172298,-3.463997593,1.439315885,0.607478120,0.159755193,0.365464078,2.616118938
84845.393000000,0.785397889,0.000000181,-0.262575045,-3.722302013,1.537249870,0.653157462,0.167427724,0.389158923,2.625164503
84845.410000000,0.785397863,0.000000197,-0.283513038,-4.005487100,1.642650885,0.705159311,0.175657648,0.414451405,2.633610219
84845.427000000,0.785397835,0.000000213,-0.305628801,-4.305295337,1.753396031,0.761783781,0.184486410,0.441304566,2.641352277
84845.444000000,0.785397804,0.000000231,-0.330143216,-4.629210114,1.871087552,0.825457985,0.193947130,0.469812731,2.648409106
84845.461000000,0.785397770,0.000000251,-0.358028290,-4.983105284,1.997327076,0.897901752,0.204187505,0.500181499,2.654605559
84845.478000000,0.785397734,0.000000272,-0.387765084,-5.358149799,2.129784882,0.976675175,0.215350256,0.532415899,2.659832829
84845.493000000,0.785397695,0.000000293,-0.418972356,-5.751187327,2.267431821,1.061439323,0.227465400,0.566459632,2.664018106
84845.505000000,0.785397658,0.000000314,-0.448883511,-6.146317573,2.406216803,1.146500239,0.240490479,0.601899888,2.667082963
84845.519000000,0.785397615,0.000000338,-0.484398710,-6.579526986,2.555072853,1.245413158,0.254673361,0.639094023,2.669010815
84845.532000000,0.785397570,0.000000362,-0.521296329,-7.028726588,2.708452926,1.350569266,0.270166149,0.677937538,2.669510339
84845.546000000,0.785397520,0.000000389,-0.563568778,-7.513582901,2.871055391,1.469794046,0.287271748,0.718648411,2.668380262
84845.563000000,0.785397463,0.000000419,-0.614827881,-8.050590427,3.046858420,1.611641579,0.306607621,0.761658637,2.665178544
84845.579000000,0.785397401,0.000000452,-0.671119276,-8.621559226,3.231624645,1.768440798,0.328698121,0.806990036,2.659271754
84845.591000000,0.785397342,0.000000483,-0.723700455,-9.187540588,3.415291940,1.922163786,0.353721489,0.854023227,2.650269648
84845.605000000,0.785397275,0.000000517,-0.785809657,-9.802517887,3.610501158,2.100564651,0.382704841,0.903184050,2.637506052
84845.623000000,0.785397196,0.000000557,-0.862988054,-10.487385064,3.821615610,2.315414721,0.417273263,0.954970968,2.619510711
84845.640000000,0.785397113,0.000000599,-0.945905731,-11.205142314,4.040163927,2.548589929,0.459094402,1.009081832,2.594433758
84845.655000000,0.785397026,0.000000641,-1.033556052,-11.950559821,4.264406100,2.798069945,0.510983854,1.065145978,2.559472640
84845.667000000,0.785396940,0.000000683,-1.118138063,-12.696192413,4.488142374,3.046902104,0.576096588,1.122128356,2.511297562
84845.681000000,0.785396844,0.000000729,-1.218630492,-13.499829081,4.722626576,3.334467903,0.661302521,1.179808431,2.443400313
84845.693000000,0.785396745,0.000000776,-1.323323048,-14.325427187,4.959816454,3.637316387,0.776740299,1.236770269,2.345500685
84845.707000000,0.785396636,0.000000827,-1.442939252,-15.200664999,5.204312294,3.977310167,0.940860259,1.290898695,2.199366888
84845.724000000,0.785396513,0.000000884,-1.585656473,-16.144388426,5.458142745,4.371767953,1.184350967,1.337620649,1.974427430
84845.737000000,0.785396392,0.000000938,-1.723297671,-17.085329709,5.709812888,4.762557708,1.530896410,1.366648829,1.646644102
84845.751000000,0.785396261,0.000000999,-1.879941104,-18.065275398,5.999712165,5.197496487,1.928630592,1.357842898,1.267717677
84845.767000000,0.785396114,0.000001069,-2.065916678,-19.100358620,6.337814840,5.697462053,2.241759449,1.311245443,0.974021003
84845.785000000,0.785395952,0.000001145,-2.278530855,-20.189169278,6.684589058,6.255896932,2.462593383,1.246122675,0.773305662
84845.802000000,0.785395783,0.000001223,-2.506562335,-21.307682550,7.032483201,6.849059027,2.618576279,1.169041281,0.637932751
84845.817000000,0.785395609,0.000001302,-2.744300827,-22.443323293,7.379823125,7.465031613,2.732750515,1.083517623,0.544884042
84845.829000000,0.785395441,0.000001378,-2.970870825,-23.565590022,7.721687423,8.063714742,2.819304712,0.992352692,0.479875140
84845.843000000,0.785395254,0.000001461,-3.237022001,-24.729938321,8.066603086,8.735915822,2.888194636,0.896124550,0.433394613
84845.857000000,0.785395059,0.000001547,-3.522013922,-25.909358174,8.410849274,9.441450914,2.945095938,0.795489298,0.399882797
84845.869000000,0.785394865,0.000001631,-3.805431539,-27.081757826,8.751015727,10.142888683,2.993378915,0.691541658,0.375978657
84845.881000000,0.785394664,0.000001717,-4.104984268,-28.258507985,9.089025452,10.868299923,3.035708098,0.584712450,0.359405677
84845.893000000,0.785394451,0.000001808,-4.435364791,-29.443993624,9.424499232,11.638202214,3.073876886,0.475164298,0.348793212
84845.905000000,0.785394236,0.000001899,-4.770978280,-30.620012021,9.756057993,12.408007345,3.109129713,0.363514533,0.343181255
84845.919000000,0.785394001,0.000001998,-5.159191735,-31.801918879,10.084526686,13.245455540,0.001086232,2.892157843,-2.799278606
84845.931000000,0.785393769,0.000002082,-5.536583697,-33.002622054,10.256026466,14.056194317,0.042123983,3.008811204,-2.828870362
84845.946000000,0.785393512,0.000002180,-5.988037898,-34.181415608,10.483984458,14.947933821,0.077543562,3.127468889,-2.838705311
84845.963000000,0.785393239,0.000002291,-6.489286197,-35.327595434,10.771779334,15.876476603,0.111929192,-3.036315393,-2.829104445
84845.975000000,0.785392981,0.000002393,-6.949941912,-36.450357078,11.060303286,16.729079896,0.147995783,-2.916681845,-2.814167659
84845.987000000,0.785392725,0.000002495,-7.411029390,-37.550315432,11.343107888,17.556532065,0.187038502,-2.797484920,-2.793694079
84845.999000000,0.785392466,0.000002597,-7.887196787,-38.624614886,11.618004393,18.372774322,0.230560178,-2.679264372,-2.766679370
84846.013000000,0.785392185,0.000002708,-8.431698786,-39.662750372,11.877346476,19.222691408,0.280781079,-2.562325558,-2.731163845
84846.026000000,0.785391909,0.000002815,-8.969602848,-40.677516713,12.130911708,20.029974293,0.340407234,-2.447680449,-2.684757654
84846.040000000,0.785391622,0.000002926,-9.546923640,-41.657303304,12.372029054,20.831100406,0.413793763,-2.336378108,-2.623232448
84846.057000000,0.785391315,0.000003045,-10.195582871,-42.592523873,12.596212591,21.640831254,0.507622367,-2.229941953,-2.539975636
84846.072000000,0.785391015,0.000003160,-10.833381340,-43.506192988,12.815674416,22.394705725,0.631276746,-2.131210628,-2.425769738
84846.086000000,0.785390722,0.000003272,-11.454476273,-44.396952344,13.031158114,23.091678871,0.797822775,-2.044876761,-2.267702405
84846.099000000,0.785390435,0.000003381,-12.063586661,-45.267143940,13.243545517,23.738743423,1.022213652,-1.977221217,-2.050923418
84846.116000000,0.785390123,0.000003500,-12.769389845,-46.080693642,13.435548674,24.386868494,1.307728620,-1.936797158,-1.772005161
84846.127000000,0.785389848,0.000003602,-13.358607362,-46.911889266,13.634884980,24.940406766,1.623050468,-1.929107752,-1.462981205
84846.140000000,0.785389564,0.000003702,-13.982084908,-47.713889326,13.782455621,25.469578566,1.925409906,-1.944673332,-1.166839668
84846.152000000,0.785389291,0.000003793,-14.577331650,-48.504806157,13.913378499,25.952714456,2.183673987,-1.983958792,-0.914349974
84846.166000000,0.785389001,0.000003891,-15.239185854,-49.253259564,14.032733435,26.418752190,2.381797420,-2.042799863,-0.721395828
84846.180000000,0.785388713,0.000003988,-15.907045460,-49.979086549,14.149945956,26.848216308,2.527491259,-2.112972067,-0.580452147
84846.192000000,0.785388445,0.000004076,-16.512318335,-50.703176638,14.272613795,27.230908918,2.635242276,-2.188746699,-0.477244204
84846.204000000,0.785388179,0.000004164,-17.120821263,-51.405839060,14.391260894,27.584438925,2.716623870,-2.266774089,-0.400094877
84846.218000000,0.785387907,0.000004254,-17.760178904,-52.080981323,14.502138363,27.913954497,2.779544144,-2.344907134,-0.340947167
84846.232000000,0.785387630,0.000004345,-18.426924980,-52.731272176,14.605293395,28.218954438,2.829410409,-2.421892940,-0.294391844
84846.244000000,0.785387374,0.000004427,-19.026598831,-53.378320288,14.709920074,28.491664090,2.870032619,-2.496980510,-0.256769372
84846.261000000,0.785387084,0.000004522,-19.754146087,-53.982606038,14.797041713,28.750727445,2.903346006,-2.569627061,-0.225625949
84846.279000000,0.785386791,0.000004617,-20.502390162,-54.565846834,14.875693454,28.986181628,2.931114302,-2.639198606,-0.199262438
84846.295000000,0.785386512,0.000004705,-21.211544748,-55.136225928,14.950864253,29.196765925,2.954559038,-2.705365283,-0.176483557
84846.311000000,0.785386248,0.000004787,-21.874291731,-55.694410076,15.022345220,29.386041330,2.974739251,-2.768197365,-0.156266530
84846.322000000,0.785386022,0.000004855,-22.422363876,-56.247581729,15.094845671,29.555799061,2.992490247,-2.827924881,-0.137841286
84846.336000000,0.785385778,0.000004927,-23.035799670,-56.773043154,15.154953582,29.713971444,3.007918578,-2.884391047,-0.120392220
84846.349000000,0.785385550,0.000004993,-23.601501972,-57.282785321,15.209324749,29.858518540,3.021587871,-2.937627539,-0.103313270
84846.363000000,0.785385315,0.000005059,-24.199043490,-57.769263664,15.251987657,29.992644179,3.033654164,-2.987535707,-0.085805897
84846.380000000,0.785385062,0.000005130,-24.863394210,-58.229992594,15.279822420,30.116500341,3.044057357,-3.033859065,-0.067229177
84846.392000000,0.785384848,0.000005186,-25.408385330,-58.674613809,15.303510809,30.229598068,3.053173580,-3.077037380,-0.047683023
84846.404000000,0.785384648,0.000005234,-25.909386924,-59.099512980,15.319787375,30.334325992,3.060983474,-3.117332467,-0.027148507
84846.416000000,0.785384453,0.000005279,-26.400984508,-59.505829414,15.328742528,30.432575196,3.067438397,3.128062116,-0.005866650
84846.431000000,0.785384229,0.000005335,-26.996599058,-59.888599265,15.324897581,30.524524307,3.072225092,3.093326453,0.016078856
84846.443000000,0.785384041,0.000005376,-27.480421218,-60.249845222,15.318993865,30.609263583,3.075858253,3.061238174,0.038133572
84846.457000000,0.785383833,0.000005424,-28.038277598,-60.589200393,15.303389275,30.688503279,3.078086080,3.032011520,0.060520302
84846.473000000,0.785383620,0.000005474,-28.616836673,-60.904904176,15.280348325,30.761784987,3.079096172,3.005688791,0.083022359
84846.485000000,0.785383449,0.000005509,-29.067699343,-61.195594736,15.256864033,30.828328594,3.079248743,2.981774777,0.105329633
84846.499000000,0.785383256,0.000005551,-29.597777587,-61.466755642,15.224792972,30.890806474,3.078263552,2.960474929,0.127782365
84846.512000000,0.785383081,0.000005588,-30.076378660,-61.713151200,15.189457356,30.947476294,3.076518960,2.941620594,0.150101961
84846.524000000,0.785382922,0.000005618,-30.508496989,-61.936359897,15.151517955,30.998807936,3.074127598,2.924978872,0.172190377
84846.535000000,0.785382769,0.000005648,-30.929303712,-62.137905182,15.109866713,31.045475511,3.071049268,2.910533580,0.194094797
84846.551000000,0.785382586,0.000005688,-31.455540402,-62.321417323,15.059454796,31.089030987,3.067220423,2.898585976,0.216037857
84846.567000000,0.785382395,0.000005731,-32.014254097,-62.480575609,15.002572406,31.127466007,3.062800885,2.889293360,0.237792608
84846.579000000,0.785382254,0.000005758,-32.420206378,-62.607489849,14.948575099,31.158239132,3.058271877,2.882056425,0.258877014
84846.592000000,0.785382105,0.000005789,-32.860621629,-62.714641637,14.889640287,31.185309357,3.053397008,2.876914573,0.279785537
84846.605000000,0.785381969,0.000005815,-33.264319326,-62.797983546,14.829530671,31.207175232,3.048406179,2.873687004,0.300225891
84846.619000000,0.785381816,0.000005848,-33.729845795,-62.863881147,14.763684074,31.225629261,3.043143537,2.872399906,0.320475657
84846.635000000,0.785381661,0.000005883,-34.211905279,-62.905432660,14.694444122,31.238955033,3.037807342,2.873333547,0.340335514
84846.646000000,0.785381545,0.000005906,-34.574151572,-62.918021355,14.628948579,31.245173494,3.032705826,2.875850816,0.359340990
84846.660000000,0.785381409,0.000005937,-35.010434093,-62.911326333,14.557988777,31.247947436,3.027592749,2.880398030,0.378058501
84846.673000000,0.785381290,0.000005963,-35.399205698,-62.879525327,14.488195336,31.245038950,3.022689185,2.886621695,0.396103901
84846.685000000,0.785381189,0.000005985,-35.738160027,-62.825068367,14.420261297,31.236739953,3.018125557,2.894238339,0.413446131
84846.697000000,0.785381091,0.000006007,-36.071093808,-62.753367994,14.352371975,31.224552885,3.013794642,2.903071743,0.430289197
84846.712000000,0.785380962,0.000006040,-36.511436608,-62.663497550,14.278476183,31.209163452,3.009535156,2.913709660,0.446919931
84846.724000000,0.785380874,0.000006062,-36.831657549,-62.547084178,14.211582650,31.187114990,3.005792986,2.925583375,0.462595031
84846.738000000,0.785380766,0.000006092,-37.220971167,-62.411925802,14.141651856,31.161474935,3.002330431,2.939000622,0.477938293
84846.755000000,0.785380628,0.000006134,-37.714279846,-62.252224827,14.066799739,31.131449372,2.999120103,2.954432688,0.492992759
84846.772000000,0.785380508,0.000006173,-38.163662330,-62.061774787,13.996524979,31.094145060,2.996470706,2.971573852,0.507337779
84846.789000000,0.785380393,0.000006213,-38.605347254,-61.841659893,13.929506895,31.050901737,2.994372849,2.990504423,0.521011038
84846.801000000,0.785380320,0.000006242,-38.921751071,-61.595866977,13.872776316,31.000872456,2.992952505,3.010465776,0.533695340
84846.813000000,0.785380262,0.000006268,-39.196161733,-61.331261796,13.821876668,30.946809007,2.992070610,3.031299756,0.545704904
84846.825000000,0.785380206,0.000006295,-39.472228635,-61.048440736,13.774032117,30.889248474,2.991620861,3.053044518,0.557344536
84846.840000000,0.785380123,0.000006335,-39.844499934,-60.743123381,13.725553879,30.828494359,2.991638451,3.076137653,0.568696927
84846.857000000,0.785380032,0.000006380,-40.251458865,-60.411976806,13.681260898,30.763471363,2.992182636,3.100529892,0.579541993
84846.870000000,0.785379978,0.000006417,-40.545536353,-60.059664145,13.649991437,30.693000187,2.993408236,3.125724194,0.589335247
84846.882000000,0.785379942,0.000006451,-40.790512022,-59.691322705,13.627879354,30.619443840,2.995211054,-3.131703636,0.598308116
84846.893000000,0.785379910,0.000006486,-41.026789987,-59.307804805,13.612607021,30.543650510,2.997476644,-3.105376249,0.606538473
84846.907000000,0.785379860,0.000006532,-41.332836134,-58.899981040,13.601857128,30.465262163,3.000171250,-3.077984881,0.614262043
84846.920000000,0.785379823,0.000006577,-41.604819476,-58.474289273,13.601723269,30.383940665,3.003351757,-3.049963664,0.621026375
84846.932000000,0.785379804,0.000006621,-41.825296891,-58.036016956,13.612876594,30.300380844,3.007012374,-3.021559684,0.626760567
84846.944000000,0.785379789,0.000006666,-42.038335311,-57.581999480,13.633452729,30.214834729,3.011000984,-2.992595055,0.631559479
84846.959000000,0.785379745,0.000006727,-42.358799326,-57.100231578,13.659774067,30.129085625,3.015285914,-2.962715555,0.634664188
84846.976000000,0.785379695,0.000006796,-42.710128874,-56.590874228,13.698062974,30.041841209,3.019978948,-2.931917902,0.637975254
84846.988000000,0.785379694,0.000006853,-42.906382123,-56.079185923,13.754950691,29.950978749,3.025058174,-2.900948056,0.639638159
84847.000000000,0.785379687,0.000006916,-43.129121081,-55.550908208,13.821440154,29.860441284,3.030277934,-2.869573607,0.640411153
84847.012000000,0.785379693,0.000006980,-43.313516869,-55.014448586,13.899804826,29.769492729,3.035674915,-2.838009246,0.640170696
84847.026000000,0.785379681,0.000007055,-43.568834412,-54.454082240,13.986745467,29.680873661,3.041217305,-2.805883651,0.639455268
84847.039000000,0.785379685,0.000007130,-43.781139804,-53.884254827,14.086670628,29.591737765,3.046991932,-2.773432142,0.637916498
84847.053000000,0.785379681,0.000007213,-44.026585367,-53.293323939,14.197207977,29.504730716,3.052967289,-2.740476844,0.635916622
84847.070000000,0.785379665,0.000007308,-44.334734500,-52.667341169,14.320837099,29.420364597,3.059245531,-2.706479015,0.633614522
84847.082000000,0.785379683,0.000007396,-44.526176601,-52.044681434,14.460432589,29.333398883,3.065922902,-2.672282342,0.630484971
84847.094000000,0.785379714,0.000007483,-44.681358261,-51.418140797,14.610953986,29.246828310,3.072774527,-2.637976377,0.626871250
84847.106000000,0.785379743,0.000007575,-44.846570098,-50.782332063,14.770658467,29.164143934,3.079722210,-2.603624291,0.622992283
84847.119000000,0.785379765,0.000007676,-45.048756041,-50.127369223,14.940578332,29.086518832,3.086897608,-2.568966576,0.619019848
84847.132000000,0.785379800,0.000007777,-45.213468390,-49.469502270,15.122042000,29.010455171,3.094337245,-2.534176081,0.614692248
84847.146000000,0.785379821,0.000007889,-45.436598736,-48.787825370,15.314250281,28.942078211,3.101979853,-2.499082591,0.610367990
84847.159000000,0.785379859,0.000008001,-45.610003694,-48.105905553,15.518743547,28.874542181,3.110000690,-2.463853767,0.605749056
84847.173000000,0.785379890,0.000008121,-45.818410995,-47.404207343,15.735295725,28.814172647,3.118303888,-2.428285070,0.602146043
84847.190000000,0.785379906,0.000008258,-46.100213306,-46.667283663,15.967291117,28.765842719,3.127014647,-2.392134620,0.597538314
84847.205000000,0.785379939,0.000008395,-46.333028117,-45.926805035,16.215193356,28.718619622,3.136382407,-2.355661542,0.592698177
84847.217000000,0.785380000,0.000008523,-46.460810788,-45.205572309,16.474351657,28.665588405,0.004786874,-0.822303170,-2.553856244
84847.231000000,0.785380047,0.000008644,-46.652825992,-44.433724986,16.719784282,28.625419676,0.038252679,-0.859312657,-2.527547633
84847.244000000,0.785380106,0.000008764,-46.804634729,-43.665930091,16.981359370,28.586803568,0.074546724,-0.895746923,-2.499164210
84847.258000000,0.785380160,0.000008896,-46.991862742,-42.880564090,17.260316904,28.559945772,0.113996585,-0.931737837,-2.468125261
84847.274000000,0.785380203,0.000009044,-47.246737806,-42.063514315,17.561814865,28.551146637,0.157259785,-0.967467401,-2.433815674
84847.292000000,0.785380243,0.000009205,-47.530466808,-41.223728365,17.888228926,28.556155454,0.205096407,-1.002785722,-2.395708496
84847.309000000,0.785380296,0.000009370,-47.780204552,-40.382198014,18.236668731,28.565072527,0.258227276,-1.037454887,-2.353348965
84847.324000000,0.785380359,0.000009540,-48.002739355,-39.540432140,18.605063742,28.578812801,0.317321058,-1.071185271,-2.305958081
84847.336000000,0.785380449,0.000009698,-48.113922825,-38.732277972,18.982413235,28.579566188,0.382741712,-1.103380798,-2.253296337
84847.350000000,0.785380528,0.000009873,-48.289394227,-37.904767549,19.376959996,28.602441097,0.455027854,-1.134092052,-2.194013021
84847.363000000,0.785380618,0.000010047,-48.424490423,-37.090174258,19.782619009,28.625290807,0.535082859,-1.163000670,-2.127735067
84847.375000000,0.785380715,0.000010222,-48.533579984,-36.286579559,20.197486684,28.650469272,0.623782749,-1.189759270,-2.053439023
84847.387000000,0.785380812,0.000010404,-48.648482214,-35.486788586,20.621523903,28.685036222,0.721495628,-1.214066487,-1.970522889
84847.402000000,0.785380895,0.000010608,-48.859893366,-34.654967108,21.066661873,28.753937516,0.829474925,-1.236018958,-1.877539380
84847.419000000,0.785380974,0.000010827,-49.108730496,-33.808011485,21.531842915,28.843678527,0.948894106,-1.255217534,-1.773782211
84847.430000000,0.785381082,0.000011030,-49.218401225,-33.011174014,21.995621977,28.903956036,1.078272722,-1.270887043,-1.661250318
84847.443000000,0.785381186,0.000011245,-49.365769624,-32.206279568,22.470629648,28.983733312,1.216446827,-1.283079090,-1.540260743
84847.455000000,0.785381297,0.000011459,-49.475985712,-31.419838263,22.948773802,29.060068238,1.361323546,-1.291444646,-1.413200989
84847.469000000,0.785381400,0.000011694,-49.659544456,-30.613440773,23.440925045,29.168763217,1.511049881,-1.296097699,-1.281478335
84847.482000000,0.785381511,0.000011928,-49.804971589,-29.825108281,23.935996266,29.273562871,1.662160148,-1.296878841,-1.149020826
84847.496000000,0.785381619,0.000012177,-49.991595731,-29.027963655,24.440575484,29.400972225,1.811956629,-1.293972577,-1.018231850
84847.512000000,0.785381719,0.000012449,-50.253239776,-28.209310491,24.959953350,29.564704993,1.958599621,-1.287567209,-0.890918873
84847.525000000,0.785381839,0.000012708,-50.404260876,-27.432295465,25.474039739,29.696708461,2.098552734,-1.277809021,-0.771271486
84847.537000000,0.785381964,0.000012967,-50.529559077,-26.671526546,25.986577644,29.826005099,2.230181546,-1.265128045,-0.660376420
84847.548000000,0.785382092,0.000013231,-50.652590246,-25.917861860,26.499882691,29.960760996,2.353476708,-1.249810059,-0.558155781
84847.564000000,0.785382208,0.000013525,-50.886526661,-25.135176132,27.023069382,30.147102384,2.468592456,-1.232184650,-0.464081156
84847.580000000,0.785382322,0.000013836,-51.164038917,-24.343703244,27.553134444,30.359548911,2.575921698,-1.212341470,-0.378258140
84847.592000000,0.785382457,0.000014124,-51.296156240,-23.604144667,28.074224429,30.517801441,2.674370992,-1.190509755,-0.302315657
84847.605000000,0.785382588,0.000014428,-51.480452524,-22.857314139,28.596732974,30.703937425,2.765313741,-1.167079190,-0.234033757
84847.617000000,0.785382724,0.000014731,-51.635094775,-22.127867574,29.115984069,30.882317600,2.849200323,-1.142221591,-0.173312065
84847.632000000,0.785382855,0.000015056,-51.866303659,-21.383640327,29.637611787,31.099464200,2.927265958,-1.116173519,-0.118590465
84847.647000000,0.785382985,0.000015397,-52.131283660,-20.637005973,30.160614922,31.336834855,3.000081371,-1.088989303,-0.069644696
84847.659000000,0.785383129,0.000015717,-52.278179784,-19.932546131,30.679139853,31.525114881,3.067495985,-1.060844283,-0.026984398
84847.673000000,0.785383268,0.000016060,-52.506404853,-19.214613878,31.197205466,31.753900715,3.130918005,-1.031946352,0.011384361
84847.686000000,0.785383412,0.000016401,-52.695414362,-18.516296804,31.713431726,31.967736681,0.048824354,-2.139219270,-3.096416994
84847.700000000,0.785383553,0.000016741,-52.931151135,-17.801438813,32.281994201,32.211615394,0.079261349,-2.169986684,-3.098641056
84847.717000000,0.785383691,0.000017109,-53.250460575,-17.073337194,32.855810399,32.497246976,0.110118828,-2.200361720,-3.100068114
84847.729000000,0.785383840,0.000017457,-53.450817676,-16.383741373,33.434643973,32.729266089,0.140633929,-2.230365164,-3.102927638
84847.741000000,0.785383994,0.000017802,-53.616007353,-15.713171118,34.014859823,32.945281872,0.171024186,-2.259891236,-3.106602670
84847.752000000,0.785384148,0.000018154,-53.784341072,-15.051652475,34.596012980,33.163303796,0.201480807,-2.288944530,-3.110823883
84847.768000000,0.785384296,0.000018543,-54.077747930,-14.371834361,35.176415048,33.440701856,0.232582130,-2.317404747,-3.114977285
84847.779000000,0.785384453,0.000018910,-54.253450797,-13.727858199,35.763754590,33.661861838,0.263589175,-2.345488734,-3.120292811
84847.793000000,0.785384607,0.000019308,-54.520937298,-13.073086485,36.351161410,33.925746141,0.295338690,-2.372973006,-3.125620255
84847.811000000,0.785384756,0.000019747,-54.914358532,-12.402574378,36.939750612,34.247411907,0.328185073,-2.399813705,-3.130872714
84847.828000000,0.785384909,0.000020191,-55.274116877,-11.748157811,37.539139238,34.550583250,0.361810822,-2.426143189,-3.136795483
84847.845000000,0.785385065,0.000020651,-55.647277941,-11.100521488,38.147748142,34.856779207,0.396479023,-2.451947621,3.140013454
84847.862000000,0.785385222,0.000021134,-56.056037396,-10.456729692,38.764239765,35.175153986,0.432448080,-2.477078499,3.133363464
84847.879000000,0.785385383,0.000021624,-56.431017189,-9.829401686,39.394597710,35.471890969,0.469509818,-2.501669119,3.126075440
84847.895000000,0.785385548,0.000022118,-56.770128358,-9.218335358,40.038123422,35.745888522,0.507649236,-2.525612699,3.118223113
84847.906000000,0.785385719,0.000022588,-56.971577274,-8.640023945,40.700627838,35.951738782,0.546276760,-2.549126313,3.109381763
84847.920000000,0.785385886,0.000023093,-57.264985999,-8.058798031,41.359975401,36.191825231,0.586090009,-2.571744804,3.100554577
84847.933000000,0.785386056,0.000023598,-57.513828789,-7.494688422,42.032278252,36.404359522,0.626831815,-2.593726403,3.091185033
84847.947000000,0.785386225,0.000024131,-57.813212181,-6.933889063,42.708629078,36.630225000,0.668847545,-2.614858847,3.081638299
84847.964000000,0.785386393,0.000024708,-58.213408374,-6.369480005,43.387917996,36.888315477,0.712782129,-2.634983820,3.072189505
84847.982000000,0.785386561,0.000025318,-58.652687348,-5.810787503,44.082127496,37.149297732,0.758785285,-2.654139338,3.062513794
84847.998000000,0.785386731,0.000025942,-59.053176364,-5.266812766,44.803803683,37.378746134,0.806900507,-2.672487752,3.053680660
84848.014000000,0.785386903,0.000026572,-59.401159067,-4.739742076,45.552914206,37.572030817,0.856818803,-2.689992978,3.043087652
84848.025000000,0.785387077,0.000027182,-59.614311775,-4.238772802,46.336668984,37.698353650,0.907895961,-2.706914571,3.031649877
84848.039000000,0.785387249,0.000027839,-59.925589991,-3.737037948,47.122153345,37.847431356,0.960927283,-2.722609120,3.020304124
84848.052000000,0.785387422,0.000028501,-60.183664772,-3.250970329,47.934887083,37.960172757,1.015602696,-2.737426490,3.008500710
84848.066000000,0.785387593,0.000029199,-60.489124044,-2.770202112,48.761088329,38.072046208,1.072392393,-2.751132775,2.996697292
84848.083000000,0.785387763,0.000029954,-60.886498084,-2.290276143,49.601192612,38.193720971,1.132045688,-2.763411093,2.985122184
84848.101000000,0.785387932,0.000030757,-61.329290243,-1.816631914,50.470493359,38.303279679,1.194930992,-2.774344116,2.972372894
84848.116000000,0.785388101,0.000031563,-61.670870298,-1.362626144,51.394720420,38.352795990,1.260503582,-2.784401163,2.960668393
84848.129000000,0.785388270,0.000032365,-61.915324502,-0.928027561,52.366216123,38.347760100,1.328180926,-2.793623917,2.948650819
84848.142000000,0.785388436,0.000033198,-62.164268131,-0.502823275,53.366746717,38.319402430,1.398226490,-2.801678912,2.936708896
84848.153000000,0.785388601,0.000034036,-62.354154181,-0.092133341,54.407328371,38.250704352,1.470261096,-2.808793920,2.924635264
84848.167000000,0.785388764,0.000034937,-62.630944969,0.317029011,55.468992421,38.176617916,1.545320878,-2.814396347,2.913072080
84848.180000000,0.785388925,0.000035853,-62.856425069,0.712357129,56.579073321,38.060812754,1.622948871,-2.819089983,2.901695701
84848.195000000,0.785389084,0.000036820,-63.124055130,1.101467307,57.724227128,37.922671888,1.703684696,-2.822542558,2.890878599
84848.211000000,0.785389240,0.000037863,-63.472218878,1.487233098,58.911873408,37.762232001,1.788453619,-2.824571805,2.879738730
84848.227000000,0.785389394,0.000038935,-63.770753232,1.858741715,60.170310647,37.551519908,1.877016122,-2.825799592,2.870457551
