time,lat,lon,alt,vn,ve,vd,roll,pitch,yaw
24361.292000000,0.785398163,0.000000000,-0.006987374,0.001217817,0.009577714,0.371789112,3.141585581,3.141586039,2.966776048
24361.319000000,0.785398163,0.000000000,-0.031180438,-0.004394958,0.023318108,0.903070968,0.000066037,0.000031213,0.146221937
24361.342000000,0.785398163,0.000000000,-0.063599681,-0.014974602,0.034543804,1.371910161,0.000252191,0.000041103,0.388004730
24361.368000000,0.785398163,0.000000001,-0.112985377,-0.028903121,0.044716220,1.890252335,0.000731888,0.000051890,0.576938168
24361.390000000,0.785398163,0.000000001,-0.164949158,-0.043509126,0.050818598,2.332538285,0.001487329,0.000206453,0.728937028
24361.414000000,0.785398163,0.000000001,-0.231391059,-0.059541594,0.054745339,2.803043376,0.002583967,0.000491076,0.853976354
24361.438000000,0.785398162,0.000000001,-0.308495274,-0.075319849,0.055241553,3.271101488,0.004161732,0.000995392,0.958740713
24361.459000000,0.785398162,0.000000002,-0.387151390,-0.089751400,0.052875700,3.693834358,0.006039677,0.001811188,1.047697114
24361.483000000,0.785398162,0.000000002,-0.487442282,-0.104449684,0.047687142,4.171230196,0.008390672,0.002995782,1.124252955
24361.506000000,0.785398161,0.000000002,-0.596881937,-0.117476353,0.039468932,4.639604820,0.011212566,0.004612998,1.190717251
24361.533000000,0.785398161,0.000000002,-0.731733322,-0.129468018,0.027589240,5.159760975,0.014642471,0.006695763,1.247954405
24361.556000000,0.785398160,0.000000001,-0.864197184,-0.137706121,0.011829907,5.627329931,0.018459909,0.009268020,1.297617055
24361.582000000,0.785398159,0.000000001,-1.024471684,-0.142759784,-0.008620865,6.144676477,0.022793163,0.012464548,1.341384563
24361.608000000,0.785398159,0.000000000,-1.198375377,-0.144231930,-0.034249678,6.662808856,0.027764915,0.016506665,1.380089632
24361.632000000,0.785398159,-0.000000001,-1.366128939,-0.140528480,-0.064244963,7.131107661,0.033190871,0.021332446,1.414799239
24361.658000000,0.785398158,-0.000000002,-1.565797346,-0.132206322,-0.099981683,7.650306473,0.038999942,0.026964392,1.445936624
24361.684000000,0.785398158,-0.000000004,-1.779058521,-0.117701030,-0.141033005,8.169499437,0.045263846,0.033442585,1.473527960
24361.707000000,0.785398159,-0.000000007,-1.982791243,-0.095356652,-0.186138003,8.638321691,0.051731597,0.040769025,1.497989788
24361.733000000,0.785398159,-0.000000010,-2.223448001,-0.065089830,-0.237308591,9.160059497,0.058436347,0.049043616,1.519782938
24361.757000000,0.785398161,-0.000000013,-2.450923989,-0.026828932,-0.291756343,9.629617974,0.065318347,0.058128080,1.538974078
24361.783000000,0.785398162,-0.000000017,-2.716708643,0.020922887,-0.351705437,10.149955995,0.072282877,0.068155649,1.556043354
24361.809000000,0.785398164,-0.000000022,-2.996151020,0.078548087,-0.415767940,10.669683065,0.079153358,0.078985648,1.571317062
24361.832000000,0.785398167,-0.000000027,-3.259852696,0.145552255,-0.480224153,11.139263895,0.085892156,0.090561436,1.584446801
24361.858000000,0.785398171,-0.000000033,-3.565108714,0.223870482,-0.548700257,11.657754162,0.092444125,0.102890534,1.595648227
24361.882000000,0.785398175,-0.000000038,-3.852064249,0.310736263,-0.615529578,12.126188822,0.098523945,0.115787789,1.605417919
24361.908000000,0.785398180,-0.000000045,-4.183180073,0.409470308,-0.684101666,12.643759059,0.104019927,0.129229656,1.614003502
24361.934000000,0.785398186,-0.000000052,-4.527914935,0.518073481,-0.749961056,13.160572131,0.108740137,0.143066990,1.621272114
24361.958000000,0.785398193,-0.000000058,-4.849979421,0.633123727,-0.809268614,13.626559847,0.112641698,0.157119729,1.627302009
24361.984000000,0.785398201,-0.000000065,-5.222615634,0.758947972,-0.865226162,14.145343625,0.115389261,0.171160424,1.632389190
24362.010000000,0.785398209,-0.000000072,-5.606889458,0.891087188,-0.911654669,14.660638090,0.116941660,0.185029097,1.635494875
24362.033000000,0.785398219,-0.000000077,-5.964798330,1.024411855,-0.944425543,15.125370037,0.117175466,0.198517124,1.637835217
24362.059000000,0.785398229,-0.000000082,-6.374453361,1.164128051,-0.965904963,15.639930267,0.115574345,0.211435731,1.639802671
24362.083000000,0.785398239,-0.000000085,-6.756978531,1.300322293,-0.968733642,16.105777415,0.112159776,0.223567291,1.641305235
24362.109000000,0.785398251,-0.000000087,-7.193356998,1.437952219,-0.954098812,16.621365244,0.106509387,0.234619172,1.642865103
24362.135000000,0.785398262,-0.000000086,-7.642258900,1.569381271,-0.915967401,17.136035310,0.098455683,0.244312169,1.644417403
24362.159000000,0.785398273,-0.000000082,-8.058355296,1.686616251,-0.850754746,17.602048894,0.088039117,0.252407486,1.645754509
24362.185000000,0.785398284,-0.000000076,-8.534481517,1.794653433,-0.757159235,18.120780190,0.074900036,0.258424089,1.647108676
24362.208000000,0.785398293,-0.000000066,-8.974245094,1.880162524,-0.631063720,18.590046477,0.059212466,0.262204894,1.647994301
24362.234000000,0.785398302,-0.000000051,-9.476166711,1.946945204,-0.470564253,19.113370139,0.040632132,0.263329477,1.648697313
24362.260000000,0.785398309,-0.000000031,-9.992043521,1.984456710,-0.270352796,19.639879195,0.018856070,0.261437330,1.649530212
24362.287000000,0.785398313,-0.000000005,-10.532933153,1.986996857,-0.026579224,20.179820310,3.135463704,2.885618271,-1.491118113
24362.313000000,0.785398313,0.000000027,-11.080129096,1.913582119,0.220586721,20.716563030,3.125341879,2.895202716,-1.561260929
24362.339000000,0.785398308,0.000000065,-11.640374694,1.793561357,0.509215379,21.256618818,3.110808294,2.908171370,-1.628321967
24362.362000000,0.785398298,0.000000110,-12.161127032,1.621531084,0.838792969,21.752749407,3.091963112,2.924197988,-1.692325341
24362.388000000,0.785398283,0.000000163,-12.753805383,1.396714696,1.215768167,22.305527212,3.068487482,2.943789301,-1.753484251
24362.415000000,0.785398261,0.000000225,-13.361875466,1.108404653,1.641347626,22.862830046,3.040529130,2.967001185,-1.812212342
24362.438000000,0.785398231,0.000000293,-13.925830879,0.754857097,2.110246930,23.374599335,3.008478280,2.993364020,-1.868567613
24362.464000000,0.785398193,0.000000372,-14.565109162,0.331550532,2.632187968,23.939851715,2.972130092,3.023579600,-1.922589658
24362.488000000,0.785398147,0.000000458,-15.158759412,-0.163387678,3.195588247,24.457994758,2.932009573,3.057069737,-1.974309096
24362.514000000,0.785398090,0.000000555,-15.832102138,-0.737141624,3.812876577,25.027888105,2.888090075,3.094688497,-2.023891021
24362.540000000,0.785398022,0.000000661,-16.523070287,-1.395317282,4.475980692,25.596286918,2.840741015,3.136393167,-2.071663424
24362.563000000,0.785397944,0.000000774,-17.162938369,-2.131452726,5.169368214,26.111036872,2.790462946,-3.101411858,-2.117924337
24362.589000000,0.785397852,0.000000898,-17.889812424,-2.957734513,5.905700992,26.669747848,2.737541294,-3.052004416,-2.163910742
24362.613000000,0.785397750,0.000001025,-18.561895229,-3.862647548,6.656250818,27.169378329,2.682373218,-2.999426916,-2.210573562
24362.639000000,0.785397633,0.000001163,-19.318992826,-4.858778330,7.432853919,27.702855547,2.625142125,-2.943759224,-2.259295675
24362.665000000,0.785397501,0.000001306,-20.091980258,-5.939798585,8.212469922,28.218582213,2.566068211,-2.885929171,-2.311439395
24362.688000000,0.785397359,0.000001448,-20.806107458,-7.087531065,8.969284067,28.669373001,2.504964862,-2.827251301,-2.367929982
24362.714000000,0.785397200,0.000001595,-21.607091317,-8.317348702,9.715817687,29.141871484,2.442116070,-2.768234505,-2.429718992
24362.741000000,0.785397027,0.000001740,-22.422512879,-9.611810593,10.420755642,29.589526830,2.377818939,-2.709914520,-2.497270185
24362.764000000,0.785396845,0.000001875,-23.169634129,-10.945449463,11.056874804,29.969353359,2.311828091,-2.653424543,-2.570839738
24362.790000000,0.785396647,0.000002009,-24.004212615,-12.333045501,11.634641169,30.364073684,2.245060341,-2.599666508,-2.650785709
24362.814000000,0.785396443,0.000002125,-24.769947309,-13.732811908,12.111242529,30.696872275,2.177775178,-2.549558595,-2.736679522
24362.840000000,0.785396224,0.000002232,-25.621649501,-15.160135228,12.496554707,31.045200083,2.111627861,-2.503747497,-2.828209018
24362.866000000,0.785395997,0.000002318,-26.480733430,-16.586024987,12.756176824,31.375887122,2.048252032,-2.462801257,-2.924200599
24362.889000000,0.785395770,0.000002375,-27.266075950,-17.979568786,12.868909587,31.661497175,1.988668381,-2.426899490,-3.023354899
24362.915000000,0.785395531,0.000002410,-28.138669513,-19.356071514,12.842792606,31.975524534,1.936174397,-2.395893320,-3.123814786
24362.939000000,0.785395298,0.000002406,-28.936300148,-20.668794810,12.644035743,32.262021907,1.892105417,-2.369252790,3.059451439
24362.965000000,0.785395058,0.000002370,-29.829709140,-21.934484892,12.279061916,32.595342298,1.860551059,-2.346525901,2.962570479
24362.991000000,0.785394821,0.000002288,-30.729198268,-23.116598942,11.716004036,32.952858781,1.844184517,-2.326932836,2.871083830
24363.015000000,0.785394599,0.000002153,-31.557040861,-24.191954470,10.947280945,33.315906107,1.844052666,-2.309546869,2.786554519
24363.041000000,0.785394378,0.000001969,-32.485606871,-25.173880717,9.977431275,33.758903666,1.864507089,-2.293646288,2.711867809
24363.067000000,0.785394170,0.000001723,-33.431880996,-26.029354633,8.777400474,34.266673785,1.907876563,-2.278857662,2.649081264
24363.090000000,0.785393988,0.000001410,-34.313802438,-26.739302890,7.344123910,34.818333420,1.974149297,-2.265077173,2.599159692
24363.116000000,0.785393815,0.000001029,-35.314264024,-27.316504873,5.677269428,35.493657632,2.067614518,-2.253158745,2.564744962
24363.140000000,0.785393676,0.000000574,-36.257558651,-27.725791376,3.758949077,36.236546898,2.187302651,-2.244167090,2.545978824
24363.166000000,0.785393554,0.000000040,-37.336452542,-27.979007911,1.583222245,37.132941256,2.336279639,-2.240674455,2.544135266
24363.192000000,0.785393463,-0.000000582,-38.467691359,-28.044704370,-0.879202198,38.162236433,2.513252407,-2.245593950,2.557568707
24363.215000000,0.785393417,-0.000001287,-39.557604487,-27.910377380,-3.620494407,39.282357502,2.711562712,-2.261420499,2.580294335
24363.241000000,0.785393398,-0.000002086,-40.817861140,-27.579710685,-6.654972625,40.585418866,2.926056740,-2.292380337,2.604252277
24363.265000000,0.785393430,-0.000002970,-42.043888707,-27.017521171,-9.971762804,41.974339635,0.004233423,-0.803183826,-0.523422549
24363.291000000,0.785393505,-0.000003947,-43.456929924,-26.074185634,-13.426154116,43.518570708,0.182956503,-0.743692220,-0.583212210
24363.317000000,0.785393631,-0.000005018,-44.961769448,-24.875822744,-17.162143735,45.178419365,0.366694021,-0.679237544,-0.658622873
24363.341000000,0.785393816,-0.000006163,-46.440998261,-23.425851560,-21.133024268,46.877997409,0.553155751,-0.615250071,-0.751978495
24363.367000000,0.785394029,-0.000007424,-48.148028007,-22.006045420,-25.684868798,48.723291722,0.791110879,-0.514247574,-0.788914071
24363.393000000,0.785394297,-0.000008770,-49.964090264,-20.308417894,-30.448163599,50.597031288,1.022511219,-0.417551291,-0.862601520
24363.419000000,0.785394619,-0.000010197,-51.906579866,-18.343201725,-35.376413119,52.464585675,1.252824675,-0.335620321,-0.968636553
24363.445000000,0.785394998,-0.000011687,-53.924427039,-16.138423445,-40.387489666,54.273602601,1.484102895,-0.278832884,-1.100921022
24363.469000000,0.785395430,-0.000013202,-55.887479821,-13.743655960,-45.370165584,55.973296432,1.714656764,-0.256393554,-1.250717282
24363.495000000,0.785395908,-0.000014782,-58.072540246,-11.181912072,-50.290966404,57.604086462,1.939710580,-0.277177343,-1.408993604
24363.521000000,0.785396436,-0.000016389,-60.333359426,-8.487633150,-55.038705543,59.135689982,2.153633229,-0.344839711,-1.563041656
24363.547000000,0.785397009,-0.000018017,-62.689823403,-5.721795347,-59.574201393,60.583893810,2.352268830,-0.450428807,-1.704730836
24363.574000000,0.785397623,-0.000019642,-65.073291872,-2.927521673,-63.844263337,61.967662704,2.535768538,-0.586715248,-1.827608426
24363.600000000,0.785398273,-0.000021258,-67.503845600,-0.136873685,-67.813013347,63.317568570,2.709879476,-0.747022123,-1.924072338
24363.623000000,0.785398951,-0.000022816,-69.814255526,2.629468674,-71.479491318,64.654896078,2.885984222,-0.921041182,-1.987217281
24363.649000000,0.785399654,-0.000024388,-72.327994110,5.325649837,-74.859329670,66.024739260,3.084799919,-1.100646617,-2.001396840
24363.673000000,0.785400372,-0.000025884,-74.707617586,7.973535886,-77.963810352,67.421493252,0.235051492,-1.866399442,1.240129255
24363.699000000,0.785401093,-0.000027400,-77.291963521,10.474021576,-80.991651239,68.895244965,0.756826667,-1.708477108,1.580304494
24363.725000000,0.785401823,-0.000028870,-79.909855006,12.910602970,-83.762411431,70.423408032,2.327397432,-1.693964758,2.984548704
24363.751000000,0.785402562,-0.000030289,-82.583462645,15.295042132,-86.218607619,71.997550558,2.879650422,-1.842342885,-2.899759413
24363.777000000,0.785403297,-0.000031643,-85.248784546,17.609903639,-88.445355277,73.596676220,3.070080108,-2.000676433,-2.852684632
24363.803000000,0.785404019,-0.000032937,-87.928891993,19.829774742,-90.473594777,75.202364069,0.047958436,-0.989977484,0.274434654
24363.827000000,0.785404697,-0.000034143,-90.438262089,21.898858918,-92.543272075,76.761590009,0.179486963,-0.848026532,0.288214078
24363.853000000,0.785405357,-0.000035336,-93.145467691,23.823630404,-94.425079614,78.316786033,0.280141094,-0.716091691,0.280107474
24363.877000000,0.785405972,-0.000036409,-95.639723417,25.628718294,-96.121872828,79.759786999,0.361338806,-0.595762205,0.261249974
24363.903000000,0.785406555,-0.000037466,-98.316437037,27.254903855,-97.628049317,81.155438457,0.428395705,-0.489003913,0.238363949
24363.929000000,0.785407089,-0.000038453,-100.969897108,28.696620969,-98.939287256,82.442798702,0.483908494,-0.396316216,0.215193771
24363.952000000,0.785407559,-0.000039318,-103.375199294,29.954650262,-100.059935460,83.567632714,0.529573568,-0.317109543,0.193967700
24363.978000000,0.785407979,-0.000040174,-105.954888390,30.975376926,-101.001332697,84.609515856,0.565981043,-0.252457590,0.177414318
24364.004000000,0.785408332,-0.000040962,-108.470372529,31.750881229,-101.760021081,85.512589823,0.593228940,-0.202031446,0.167136874
24364.028000000,0.785408606,-0.000041634,-110.701198641,32.288672904,-102.344597714,86.238678948,0.612403991,-0.164454935,0.163847759
24364.054000000,0.785408818,-0.000042305,-113.079432561,32.549596776,-102.782751636,86.875142522,0.623704002,-0.140517346,0.168977631
24364.078000000,0.785408945,-0.000042868,-115.156904970,32.557714024,-103.072444772,87.340756968,0.628197994,-0.128548319,0.182154552
24364.104000000,0.785409006,-0.000043442,-117.373380449,32.277630989,-103.246987316,87.724798930,0.626921878,-0.129689057,0.204342198
24364.130000000,0.785408986,-0.000043975,-119.499530262,31.711040709,-103.309653149,87.984980695,0.621125199,-0.143521631,0.235346624
24364.153000000,0.785408883,-0.000044420,-121.322796897,30.900266380,-103.277773922,88.098114882,0.612588983,-0.167825515,0.273662696
24364.179000000,0.785408711,-0.000044895,-123.279910280,29.801407861,-103.183556434,88.145033830,0.603148521,-0.204320956,0.320146884
24364.203000000,0.785408458,-0.000045295,-124.930596098,28.467206788,-103.028400754,88.053176926,0.594593949,-0.250597327,0.373262125
24364.229000000,0.785408139,-0.000045741,-126.720749384,26.861283891,-102.849502987,87.906787421,0.589357650,-0.307619186,0.434085065
24364.255000000,0.785407741,-0.000046178,-128.412419900,24.988718471,-102.650033287,87.655669117,0.589654534,-0.374678446,0.503050518
24364.278000000,0.785407267,-0.000046557,-129.799574583,22.910337009,-102.439142279,87.272798907,0.597590285,-0.449026034,0.579712645
24364.304000000,0.785406727,-0.000047000,-131.317903587,20.574478360,-102.253509726,86.831355199,0.617173115,-0.531128259,0.667349319
24364.330000000,0.785406114,-0.000047454,-132.739383596,18.005649032,-102.097513901,86.283454983,0.652224044,-0.619054007,0.768585408
24364.354000000,0.785405435,-0.000047867,-133.865199528,15.277182517,-101.971993829,85.603781467,0.706586507,-0.708808622,0.885721358
24364.380000000,0.785404695,-0.000048361,-135.115997700,12.330437109,-101.913643123,84.851938673,0.788776592,-0.798793287,1.027091958
24364.406000000,0.785403887,-0.000048896,-136.318099066,9.184071947,-101.923983085,83.986573968,0.908298158,-0.884697702,1.201644196
24364.433000000,0.785403015,-0.000049454,-137.386526385,5.873465344,-102.002632201,82.990933657,1.075495552,-0.959353996,1.419055611
24364.459000000,0.785402085,-0.000050048,-138.360857720,2.422374154,-102.151974977,81.870159050,1.297044894,-1.013582351,1.685559298
24364.482000000,0.785401115,-0.000050621,-139.050660159,-1.080040409,-102.347296214,80.617878835,1.561371314,-1.036768616,1.989383213
24364.508000000,0.785400096,-0.000051294,-139.855041068,-4.693668902,-102.626530363,79.269376473,1.842624263,-1.020888860,2.305220525
24364.534000000,0.785399031,-0.000052017,-140.567304993,-8.372117580,-102.984994770,77.798629993,2.101490723,-0.964943326,2.593981216
24364.558000000,0.785397939,-0.000052727,-141.006661107,-12.029655169,-103.401278233,76.217976504,2.312625315,-0.876752521,2.830815648
24364.584000000,0.785396803,-0.000053551,-141.556582203,-15.719946282,-103.919412170,74.547249533,2.478241699,-0.763757367,3.018147565
24364.607000000,0.785395650,-0.000054367,-141.845470544,-19.340564873,-104.498750684,72.795796011,2.606146614,-0.635364748,-3.119178890
24364.633000000,0.785394458,-0.000055303,-142.242015521,-22.942454778,-105.175337163,70.971551189,2.708369745,-0.495144882,-3.002725323
24364.659000000,0.785393238,-0.000056299,-142.556287438,-26.479959937,-105.921462820,69.083641358,2.793558714,-0.347547831,-2.906821018
24364.683000000,0.785391971,-0.000057364,-142.652700162,-29.867808222,-107.167826520,67.182491116,2.846520429,-0.178809757,-2.871351048
24364.709000000,0.785390682,-0.000058539,-142.844720326,-33.166400771,-108.412348815,65.254949130,2.900401932,-0.012253261,-2.836266755
24364.735000000,0.785389380,-0.000059771,-142.963725810,-36.346967839,-109.697829794,63.324964387,2.954484197,0.153536659,-2.807279448
24364.758000000,0.785388097,-0.000060990,-142.876776022,-39.378590111,-111.008426669,61.435833928,3.009578084,0.316637204,-2.786076152
24364.784000000,0.785386792,-0.000062327,-142.893934256,-42.274671371,-112.368577439,59.587202744,3.069027863,0.478384565,-2.773419583
24364.808000000,0.785385514,-0.000063643,-142.723914922,-45.026186511,-113.747347236,57.814565149,3.135515217,0.635868424,-2.771872336
24364.834000000,0.785384217,-0.000065074,-142.656870354,-47.642536746,-115.164993096,56.117027319,0.073560841,2.351268165,0.356316002
24364.860000000,0.785382949,-0.000066500,-142.548466005,-50.149487048,-116.383757468,54.511519411,0.148430907,2.201323195,0.358677028
24364.884000000,0.785381718,-0.000067889,-142.284544033,-52.538811779,-117.626305659,53.010026932,0.245825497,2.057264225,0.335785860
24364.910000000,0.785380475,-0.000069383,-142.135995175,-54.796616107,-118.905613769,51.628171054,0.393447629,1.919704092,0.261722996
24364.933000000,0.785379270,-0.000070835,-141.847785853,-56.965386847,-120.215444122,50.348162995,0.671183305,1.796667428,0.056386192
24364.959000000,0.785378054,-0.000072391,-141.682227447,-59.017033672,-121.566813423,49.201622059,1.323985916,1.714575524,-0.523950206
24364.985000000,0.785376844,-0.000073990,-141.517500009,-60.987012065,-122.986669199,48.169545750,2.225703040,1.739378459,-1.352814523
24365.009000000,0.785375674,-0.000075549,-141.231712794,-62.899773894,-124.473037829,47.222380510,2.652158900,1.837671591,-1.706140429
24365.035000000,0.785374492,-0.000077205,-141.069378347,-64.726627184,-125.996310964,46.408572484,2.847058136,1.950839889,-1.825961937
24365.061000000,0.785373324,-0.000078884,-140.912000505,-66.505250003,-127.546565036,45.691961821,2.964913668,2.064902215,-1.866205931
24365.088000000,0.785372161,-0.000080603,-140.783731944,-68.244079413,-129.124823885,45.071194018,3.051925900,2.176582704,-1.872545104
24365.114000000,0.785371018,-0.000082324,-140.641102779,-69.954000479,-130.726761378,44.523555174,3.123959467,2.284261330,-1.860689631
24365.137000000,0.785369922,-0.000083979,-140.404882467,-71.640455241,-132.337511694,44.009589220,0.045865949,0.754873206,1.304013684
24365.163000000,0.785368829,-0.000085665,-140.289048664,-73.297394332,-133.826443746,43.593496171,0.126496095,0.656680385,1.307753375
24365.189000000,0.785367746,-0.000087371,-140.189114071,-74.935350262,-135.355424379,43.230651499,0.201059652,0.562493007,1.321953769
24365.216000000,0.785366665,-0.000089112,-140.125032496,-76.559054667,-136.928543909,42.918935617,0.272698618,0.472618093,1.344138674
24365.242000000,0.785365600,-0.000090853,-140.051092094,-78.172196064,-138.538030375,42.630221938,0.342924080,0.387554155,1.372741326
24365.268000000,0.785364543,-0.000092612,-139.989349488,-79.774255037,-140.186156061,42.364994368,0.413400271,0.307554979,1.406599651
24365.291000000,0.785363531,-0.000094300,-139.837753838,-81.362055679,-141.847110465,42.071417167,0.484079921,0.233150312,1.444896602
24365.317000000,0.785362492,-0.000096089,-139.808604335,-82.935138800,-143.557627647,41.833973823,0.557097602,0.163923702,1.487108085
24365.341000000,0.785361498,-0.000097807,-139.685234697,-84.492657646,-145.277360925,41.552793277,0.631560953,0.100376188,1.532766701
24365.367000000,0.785360475,-0.000099629,-139.678286929,-86.039429174,-147.050347893,41.310684540,0.709172832,0.042237358,1.581742444
24365.393000000,0.785359456,-0.000101477,-139.678513932,-87.578716417,-148.864246170,41.054052164,0.789983496,-0.010467410,1.633685306
24365.420000000,0.785358433,-0.000103369,-139.703044962,-89.110101470,-150.723332225,40.783809095,0.874225839,-0.057541570,1.688500622
24365.446000000,0.785357421,-0.000105270,-139.709665861,-90.628794734,-152.616577148,40.479301174,0.961701744,-0.099007194,1.745587287
24365.472000000,0.785356413,-0.000107201,-139.715111203,-92.136598925,-154.549605040,40.142164925,1.052631682,-0.134882472,1.804808427
24365.495000000,0.785355449,-0.000109065,-139.621224235,-93.617791973,-156.480599840,39.738178033,1.145694077,-0.165183438,1.865220037
24365.521000000,0.785354449,-0.000111051,-139.627235193,-95.090992581,-158.472210772,39.330408307,1.242248258,-0.189869585,1.926949074
24365.548000000,0.785353444,-0.000113093,-139.643561529,-96.552920222,-160.507753436,38.882215173,1.341927507,-0.209244500,1.989655752
24365.574000000,0.785352449,-0.000115153,-139.630276298,-97.996476336,-162.570079992,38.379099185,1.444123766,-0.223332788,2.052677462
24365.600000000,0.785351457,-0.000117252,-139.605544795,-99.421622957,-164.662535939,37.825694895,1.548576064,-0.232179671,2.115669199
24365.623000000,0.785350513,-0.000119284,-139.477692951,-100.809794257,-166.736640674,37.204542847,1.653596668,-0.236043827,2.177644055
24365.649000000,0.785349530,-0.000121453,-139.433479018,-102.181382764,-168.858695091,36.555955862,1.760271921,-0.234448472,2.238699734
24365.675000000,0.785348551,-0.000123664,-139.370640796,-103.527057313,-171.000991760,35.853771161,1.867973447,-0.227560121,2.298278748
24365.699000000,0.785347620,-0.000125807,-139.206217269,-104.828035228,-173.115156309,35.093091050,1.974938599,-0.215877416,2.355358922
24365.725000000,0.785346649,-0.000128094,-139.113134390,-106.104078013,-175.264870492,34.298472994,2.082377760,-0.198835782,2.409922471
24365.752000000,0.785345674,-0.000130444,-139.015745140,-107.344000708,-177.423309428,33.458318648,2.189521243,-0.176947412,2.461244941
24365.778000000,0.785344711,-0.000132819,-138.876347848,-108.543823090,-179.577790979,32.571215642,2.296162962,-0.150538752,2.508903975
24365.804000000,0.785343751,-0.000135237,-138.713044693,-109.699654742,-181.725960959,31.644774891,2.401972899,-0.119714172,2.552232381
24365.827000000,0.785342841,-0.000137586,-138.453358539,-110.798528469,-183.835247160,30.686806645,2.505824805,-0.085255931,2.590283441
24365.853000000,0.785341889,-0.000140083,-138.251312556,-111.845257498,-185.949059399,29.706674543,2.608668946,-0.046523236,2.622238377
24365.879000000,0.785340941,-0.000142622,-138.024186779,-112.830612995,-188.050038331,28.704982002,2.710565368,-0.004222507,2.647276685
24365.901000000,0.785340076,-0.000145001,-137.666790678,-113.746721307,-190.085383217,27.703260351,2.810104551,0.039189724,2.665474769
24365.925000000,0.785339191,-0.000147472,-137.345873945,-114.602736232,-192.082579157,26.703601046,2.908662138,0.083535117,2.677554554
24365.946000000,0.785338360,-0.000149844,-136.956704430,-115.399320008,-194.010812746,25.720512286,3.005692711,0.127198719,2.684243746
24365.970000000,0.785337496,-0.000152328,-136.619799246,-116.139083430,-195.885763814,24.752008619,3.102449222,0.170235065,2.686002703
24365.992000000,0.785336677,-0.000154737,-136.234614853,-116.826547279,-197.692626539,23.808912318,0.056769758,2.930134833,-0.458316928
24366.018000000,0.785335804,-0.000157293,-135.942962280,-117.545227694,-199.320244173,22.889662136,0.149476280,2.889585084,-0.445940756
24366.045000000,0.785334939,-0.000159861,-135.634780740,-118.213822083,-200.893276380,21.999030439,0.242183071,2.849306378,-0.437647556
24366.068000000,0.785334141,-0.000162289,-135.254506452,-118.838936468,-202.403974538,21.148399782,0.333767207,2.810426364,-0.433046732
24366.094000000,0.785333324,-0.000164786,-134.900962462,-119.412099737,-203.849590104,20.339723623,0.425143317,2.772416657,-0.432204314
24366.117000000,0.785332547,-0.000167199,-134.515059413,-119.943303318,-205.233392319,19.577637861,0.515664406,2.736193333,-0.434775184
24366.142000000,0.785331770,-0.000169625,-134.142779730,-120.426517494,-206.548945866,18.867523841,0.605413769,2.701712721,-0.440590146
24366.165000000,0.785331018,-0.000172000,-133.760795717,-120.869739591,-207.805097282,18.209322966,0.694366504,2.669255936,-0.449332702
24366.186000000,0.785330320,-0.000174248,-133.347407889,-121.282248120,-209.009583278,17.599141721,0.782165404,2.639321860,-0.460727020
24366.213000000,0.785329542,-0.000176701,-133.021153262,-121.635636292,-210.133518827,17.057917065,0.869979455,2.610964556,-0.474984221
24366.236000000,0.785328824,-0.000179014,-132.657600292,-121.966112408,-211.220809784,16.561217634,0.956743284,2.585350240,-0.491264940
24366.262000000,0.785328067,-0.000181427,-132.341568643,-122.251154988,-212.244768849,16.130957114,1.043211642,2.561799016,-0.509709555
24366.288000000,0.785327320,-0.000183822,-132.032534638,-122.505625546,-213.224613315,15.755725548,1.128824957,2.540644405,-0.529819360
24366.312000000,0.785326632,-0.000186071,-131.694457496,-122.745475157,-214.178329850,15.417695389,1.212870338,2.522310080,-0.551011011
24366.338000000,0.785325902,-0.000188428,-131.407992794,-122.944740175,-215.074581293,15.149572105,1.296216191,2.505968494,-0.573498881
24366.364000000,0.785325182,-0.000190759,-131.131329524,-123.120525888,-215.936123719,14.931894666,1.378005940,2.491977752,-0.596603776
24366.391000000,0.785324462,-0.000193092,-130.875780084,-123.271449785,-216.759218007,14.768616748,1.458052383,2.480076428,-0.619919456
24366.417000000,0.785323758,-0.000195383,-130.627799236,-123.405470376,-217.554962645,14.648657123,1.536285292,2.470258372,-0.643211245
24366.440000000,0.785323115,-0.000197518,-130.358877015,-123.536603135,-218.338063554,14.547457541,1.611698248,2.462706323,-0.665770706
24366.466000000,0.785322428,-0.000199758,-130.143960476,-123.636691238,-219.075741514,14.514134794,1.685295898,2.456488952,-0.688087908
24366.492000000,0.785321747,-0.000201980,-129.945669304,-123.722426097,-219.791000575,14.521133163,1.756679317,2.451888130,-0.709725179
24366.516000000,0.785321125,-0.000204051,-129.727967195,-123.811147976,-220.500393645,14.534894771,1.825163296,2.448861587,-0.730116613
24366.542000000,0.785320458,-0.000206230,-129.564636581,-123.872895640,-221.172555468,14.613090238,1.891651365,2.446612463,-0.749796043
24366.568000000,0.785319797,-0.000208391,-129.418033603,-123.925006987,-221.829433205,14.723178705,1.955857486,2.445444065,-0.768448457
24366.594000000,0.785319132,-0.000210560,-129.296128884,-123.965501210,-222.468992445,14.869584061,2.017695818,2.445109722,-0.785908378
24366.621000000,0.785318479,-0.000212694,-129.185255558,-124.001062202,-223.099647425,15.038853218,2.077299844,2.445603774,-0.802142925
24366.644000000,0.785317883,-0.000214680,-129.052583701,-124.045821253,-223.734355251,15.196453063,2.133924019,2.447089599,-0.816684967
24366.670000000,0.785317240,-0.000216783,-128.974635146,-124.069661284,-224.346039753,15.412576836,2.188835850,2.448821465,-0.830320734
24366.696000000,0.785316601,-0.000218875,-128.913697923,-124.088771280,-224.951127927,15.650065716,2.241621410,2.450925579,-0.842712097
24366.723000000,0.785315955,-0.000220985,-128.878434011,-124.100304852,-225.547865514,15.915643108,2.292379747,2.453279211,-0.853840269
24366.749000000,0.785315320,-0.000223064,-128.850412280,-124.111805219,-226.145520060,16.190946873,2.341159223,2.455970912,-0.863608964
24366.775000000,0.785314690,-0.000225131,-128.837710135,-124.120827412,-226.740100608,16.481217527,2.387805016,2.458758619,-0.871978897
24366.798000000,0.785314112,-0.000227060,-128.798414771,-124.142842213,-227.343130413,16.744766474,2.432053802,2.462032473,-0.878761327
24366.825000000,0.785313483,-0.000229120,-128.820940136,-124.145634037,-227.930772141,17.065237314,2.474795888,2.464928727,-0.884668557
24366.848000000,0.785312908,-0.000231035,-128.812249897,-124.162900459,-228.527415952,17.352594787,2.515192590,2.468154601,-0.888934156
24366.874000000,0.785312286,-0.000233076,-128.861705430,-124.164065164,-229.114186876,17.691370294,2.554241494,2.470858633,-0.892372812
24366.900000000,0.785311664,-0.000235113,-128.925709060,-124.164623372,-229.701537619,18.038957913,2.591572633,2.473391597,-0.894678949
24366.927000000,0.785311034,-0.000237175,-129.013323080,-124.161593312,-230.288542123,18.402263266,2.627328681,2.475613031,-0.895827922
24366.953000000,0.785310413,-0.000239210,-129.107742982,-124.159945825,-230.877158815,18.764920541,2.661461975,2.477600793,-0.895874471
24366.979000000,0.785309791,-0.000241248,-129.216985704,-124.156988427,-231.466779263,19.134111540,2.693947581,2.479197554,-0.894836542
24367.003000000,0.785309221,-0.000243148,-129.287679939,-124.169370645,-232.064353103,19.461344112,2.724458084,2.480699763,-0.892464782
24367.029000000,0.785308601,-0.000245178,-129.421474190,-124.165863820,-232.655314638,19.836569574,2.753894814,2.481446770,-0.889477331
24367.053000000,0.785308010,-0.000247134,-129.536922419,-124.170402379,-233.252181025,20.188190834,2.781824530,2.481856554,-0.885366030
24367.078000000,0.785307414,-0.000249100,-129.668257694,-124.173188976,-233.848976168,20.545252878,2.808424283,2.481778782,-0.880458962
24367.104000000,0.785306795,-0.000251129,-129.835821537,-124.167447058,-234.443999258,20.924009264,2.833782027,2.480947599,-0.874848101
24367.131000000,0.785306165,-0.000253185,-130.024602374,-124.158183957,-235.039417214,21.311039924,2.857915411,2.479517641,-0.868579624
24367.157000000,0.785305545,-0.000255215,-130.212237387,-124.151049351,-235.637554584,21.687521499,2.880704237,2.477571928,-0.861443226
24367.183000000,0.785304925,-0.000257244,-130.409082911,-124.142138538,-236.236131263,22.061726019,2.902232446,2.474936154,-0.853620016
24367.206000000,0.785304354,-0.000259137,-130.559647633,-124.146087086,-236.834677218,22.388799820,2.922215778,2.471983568,-0.844957851
24367.233000000,0.785303731,-0.000261168,-130.779092757,-124.131853351,-237.428768549,22.760264413,2.941315767,2.468066935,-0.836087980
24367.259000000,0.785303110,-0.000263195,-131.004660702,-124.115710191,-238.021906963,23.126069385,2.959267593,2.463514153,-0.826712377
24367.282000000,0.785302538,-0.000265086,-131.180488587,-124.111600832,-238.613272003,23.443355425,2.975649922,2.458696322,-0.816559835
24367.308000000,0.785301915,-0.000267111,-131.423911129,-124.087957006,-239.199697362,23.801169681,2.991220534,2.452838908,-0.806256314
24367.335000000,0.785301283,-0.000269161,-131.685814954,-124.057920634,-239.783102588,24.161958508,3.005582122,2.446202066,-0.795590677
24367.361000000,0.785300658,-0.000271188,-131.943058240,-124.026661483,-240.365005741,24.508424759,3.018689726,2.439008619,-0.784390258
24367.387000000,0.785300034,-0.000273212,-132.205295246,-123.991051654,-240.943014123,24.847014071,3.030594898,2.431131355,-0.772777359
24367.411000000,0.785299459,-0.000275097,-132.410046380,-123.966390824,-241.515081895,25.133732301,3.041070994,2.422977089,-0.760515664
24367.437000000,0.785298834,-0.000277119,-132.685323467,-123.919994671,-242.080513473,25.458689831,3.050571567,2.413808976,-0.748171934
24367.463000000,0.785298211,-0.000279134,-132.962516588,-123.867446386,-242.640258378,25.773430353,3.058729437,2.403944980,-0.735362300
24367.486000000,0.785297635,-0.000281014,-133.179278072,-123.825752265,-243.192964043,26.037024180,3.065331294,2.393815088,-0.721840194
24367.512000000,0.785297010,-0.000283030,-133.466662293,-123.759468574,-243.737634897,26.335701637,3.070703568,2.382688702,-0.708051144
24367.536000000,0.785296436,-0.000284899,-133.688370222,-123.703585662,-244.271620334,26.580290355,3.074525429,2.371363362,-0.693624023
24367.562000000,0.785295812,-0.000286903,-133.980767983,-123.622409835,-244.794951533,26.858370088,3.076838036,2.359093748,-0.678755684
24367.588000000,0.785295190,-0.000288902,-134.273986384,-123.532936006,-245.308856674,27.125229144,3.077626279,2.346210850,-0.663354085
24367.611000000,0.785294617,-0.000290759,-134.500235514,-123.452723376,-245.811113127,27.338766341,3.077039763,2.333105826,-0.647379756
24367.637000000,0.785293995,-0.000292753,-134.797364890,-123.344720398,-246.301918540,27.584309910,3.074716773,2.319076125,-0.630849088
24367.661000000,0.785293424,-0.000294600,-135.022276950,-123.246322661,-246.780082424,27.774718496,3.070856019,2.304808429,-0.613530471
24367.687000000,0.785292805,-0.000296582,-135.315881282,-123.119101063,-247.246167263,27.994291505,3.065023651,2.289744235,-0.595471191
24367.713000000,0.785292185,-0.000298565,-135.610210632,-122.980474050,-247.697887859,28.201135353,3.057178075,2.274089661,-0.576391135
24367.737000000,0.785291617,-0.000300397,-135.828968712,-122.851352147,-248.134155138,28.352237114,3.047509184,2.258297367,-0.556381085
24367.763000000,0.785291002,-0.000302361,-136.117114166,-122.691011144,-248.553897404,28.530020077,3.035422826,2.241771560,-0.535251619
24367.789000000,0.785290389,-0.000304319,-136.402537934,-122.518000679,-248.956020432,28.693216909,3.020857139,2.224796582,-0.512757506
24367.812000000,0.785289828,-0.000306125,-136.609723391,-122.354378827,-249.340134342,28.800467741,3.004327646,2.207822689,-0.489097879
24367.838000000,0.785289220,-0.000308062,-136.886156156,-122.157165914,-249.704681189,28.932910176,2.984779500,2.190250733,-0.463771277
24367.862000000,0.785288664,-0.000309848,-137.083565501,-121.969126597,-250.050581180,29.009408547,2.962809152,2.172754057,-0.436854889
24367.888000000,0.785288062,-0.000311766,-137.347914181,-121.746636163,-250.375071832,29.108300494,2.937104293,2.154833906,-0.407561773
24367.914000000,0.785287464,-0.000313672,-137.604593075,-121.510510408,-250.677007201,29.188676902,2.907874118,2.136797582,-0.375875942
24367.940000000,0.785286860,-0.000315593,-137.868863202,-121.256950600,-250.955186405,29.257931002,2.874856758,2.118737062,-0.341609787
24367.966000000,0.785286268,-0.000317478,-138.113617829,-120.992107784,-251.209876389,29.302493236,2.837959665,2.100922058,-0.304582797
24367.992000000,0.785285679,-0.000319354,-138.350864445,-120.712530051,-251.438861477,29.327760826,2.796452391,2.083340904,-0.264137560
24368.016000000,0.785285144,-0.000321065,-138.500611801,-120.443743056,-251.647011828,29.296223252,2.751254731,2.066334496,-0.220787638
24368.042000000,0.785284566,-0.000322907,-138.717631164,-120.137392119,-251.825402232,29.282368159,2.700212489,2.049956800,-0.173015338
24368.066000000,0.785284042,-0.000324585,-138.847767723,-119.842589822,-251.982582864,29.212968587,2.645089624,2.034459858,-0.121868681
24368.092000000,0.785283475,-0.000326388,-139.043005907,-119.510522300,-252.107699841,29.158857379,2.583271626,2.020030403,-0.065412722
24368.118000000,0.785282913,-0.000328173,-139.225605178,-119.165210627,-252.204315689,29.082843116,2.515635252,2.006863463,-0.004324222
24368.144000000,0.785282349,-0.000329965,-139.409057599,-118.801695629,-252.270400284,28.989656290,2.441819644,1.995315410,0.061726060
24368.170000000,0.785281800,-0.000331708,-139.564199508,-118.430004987,-252.308064386,28.867521874,2.362455844,1.985671818,0.132313004
24368.196000000,0.785281258,-0.000333429,-139.705633947,-118.045564128,-252.315904189,28.722310675,2.277647057,1.978244405,0.207224633
24368.220000000,0.785280769,-0.000334986,-139.761917863,-117.674958800,-252.303548423,28.525464488,2.190110790,1.973007917,0.284261258
24368.246000000,0.785280241,-0.000336662,-139.877204119,-117.268969187,-252.254756468,28.337665795,2.097678274,1.970753367,0.364785495
24368.269000000,0.785279765,-0.000338174,-139.906619529,-116.877256182,-252.186540317,28.098896363,2.004198825,1.970909010,0.445716166
24368.296000000,0.785279248,-0.000339809,-139.995828665,-116.449708051,-252.079926258,27.867920990,1.908550049,1.974460528,0.527439770
24368.323000000,0.785278723,-0.000341465,-140.091601291,-116.004406697,-251.939699254,27.620862427,1.812419604,1.981263616,0.608429805
24368.347000000,0.785278257,-0.000342935,-140.093663547,-115.578909370,-251.782826270,27.321655483,1.719132524,1.990325803,0.686044507
24368.374000000,0.785277748,-0.000344532,-140.154997115,-115.118810958,-251.583644545,27.027162404,1.627266208,2.003119657,0.760804867
24368.395000000,0.785277353,-0.000345773,-140.044081521,-114.711306038,-251.385149869,26.655549298,1.540978026,2.017163254,0.830111233
24368.407000000,0.785277129,-0.000346483,-139.691383870,-114.394590637,-251.216892260,26.195735879,1.462571901,2.030695193,0.892804041
24368.423000000,0.785276824,-0.000347441,-139.468262489,-114.033245224,-251.015768331,25.781023385,1.388577240,2.047334211,0.950133581
24368.438000000,0.785276548,-0.000348305,-139.212430905,-113.686203803,-250.809419345,25.353034619,1.319858396,2.065113410,1.002165787
24368.450000000,0.785276340,-0.000348953,-138.872038247,-113.377123369,-250.614189153,24.898814919,1.256560854,2.082824794,1.049304612
24368.464000000,0.785276092,-0.000349724,-138.599729593,-113.048388493,-250.399328129,24.468541619,1.197676931,2.102369531,1.091568137
24368.476000000,0.785275872,-0.000350406,-138.300058746,-112.735941476,-250.184055720,24.030764956,1.143053051,2.122256162,1.129691571
24368.490000000,0.785275630,-0.000351148,-138.037867625,-112.414162210,-249.953661594,23.605353840,1.092204309,2.143310454,1.163714197
24368.507000000,0.785275348,-0.000352012,-137.833007069,-112.071942300,-249.698665611,23.193987408,1.044361981,2.166000184,1.194014101
24368.520000000,0.785275137,-0.000352649,-137.542318966,-111.768355556,-249.456174759,22.757039833,0.999497246,2.187784018,1.221832595
24368.534000000,0.785274904,-0.000353347,-137.286243445,-111.456707150,-249.199947731,22.330828073,0.957501457,2.210420162,1.246427420
24368.550000000,0.785274632,-0.000354165,-137.084542652,-111.127059500,-248.920612790,21.917351680,0.917970730,2.234426818,1.267939820
24368.568000000,0.785274344,-0.000355027,-136.903735066,-110.791036222,-248.623629901,21.505147581,0.880466027,2.259291769,1.286913108
24368.584000000,0.785274078,-0.000355810,-136.694704539,-110.467844043,-248.321258734,21.080749163,0.844458963,2.284142992,1.304152009
24368.602000000,0.785273796,-0.000356637,-136.505411699,-110.139723891,-248.002200414,20.657166150,0.810148687,2.309788027,1.319206060
24368.619000000,0.785273536,-0.000357384,-136.289228145,-109.825448629,-247.679502321,20.223407380,0.777153682,2.335245740,1.332781259
24368.636000000,0.785273260,-0.000358176,-136.092162829,-109.507276788,-247.341084545,19.790479080,0.745613144,2.361426409,1.344387440
24368.653000000,0.785273006,-0.000358890,-135.869277117,-109.203267754,-247.000167733,19.348872841,0.715050127,2.387382153,1.354881710
24368.669000000,0.785272755,-0.000359588,-135.644861321,-108.905229407,-246.653070269,18.905752582,0.685650564,2.413395273,1.363984241
24368.687000000,0.785272486,-0.000360333,-135.438469276,-108.604393562,-246.292593354,18.463614197,0.657379851,2.440026483,1.371494125
24368.703000000,0.785272240,-0.000360998,-135.206760126,-108.318276121,-245.931865972,18.014548946,0.629776490,2.466276553,1.378234764
24368.721000000,0.785271976,-0.000361713,-134.992756963,-108.030532837,-245.559544342,17.566801396,0.603091277,2.493058888,1.383638562
24368.738000000,0.785271734,-0.000362349,-134.755492630,-107.757343048,-245.188932904,17.114157782,0.576955934,2.519336531,1.388433161
24368.754000000,0.785271493,-0.000362973,-134.517542076,-107.491916831,-244.816035612,16.662654020,0.551585715,2.545474101,1.392331489
24368.767000000,0.785271319,-0.000363382,-134.218551903,-107.257736076,-244.463078054,16.205674041,0.526388187,2.569793559,1.396607216
24368.781000000,0.785271122,-0.000363858,-133.945306204,-107.022370474,-244.105351450,15.757453186,0.502229593,2.594502611,1.399684545
24368.796000000,0.785270908,-0.000364384,-133.690076967,-106.787554419,-243.742909012,15.314676272,0.478975132,2.619478986,1.401676914
24368.807000000,0.785270756,-0.000364710,-133.384188141,-106.580496650,-243.401078955,14.871812482,0.455759795,2.642568685,1.404213152
24368.822000000,0.785270562,-0.000365165,-133.119337277,-106.366788188,-243.051989468,14.439869350,0.433750480,2.666477364,1.405360818
24368.834000000,0.785270392,-0.000365542,-132.838652596,-106.167256981,-242.712484563,14.012006778,0.412083004,2.689479578,1.406404500
24368.848000000,0.785270199,-0.000365986,-132.579531006,-105.967726888,-242.370604079,13.591598782,0.391237982,2.712791417,1.406551630
24368.865000000,0.785269966,-0.000366551,-132.351147226,-105.763417372,-242.017867373,13.174843438,0.371190473,2.737158905,1.405475799
24368.877000000,0.785269798,-0.000366907,-132.074383378,-105.583751288,-241.683728237,12.759533868,0.350797905,2.759531861,1.405228313
24368.891000000,0.785269607,-0.000367330,-131.817311451,-105.405023697,-241.348423772,12.351451416,0.331123911,2.782274854,1.404170001
24368.908000000,0.785269375,-0.000367879,-131.590243383,-105.223010052,-241.005689926,11.948266241,0.312230332,2.806036988,1.401980061
24368.926000000,0.785269126,-0.000368477,-131.373143782,-105.044367044,-240.660069182,11.547260375,0.293725126,2.830160152,1.399131927
24368.942000000,0.785268896,-0.000369007,-131.140900029,-104.877568839,-240.320097647,11.148317454,0.275171408,2.853615243,1.396328937
24368.959000000,0.785268659,-0.000369554,-130.912348539,-104.716891097,-239.981976535,10.753502008,0.256924352,2.877152060,1.393148354
24368.974000000,0.785268450,-0.000370005,-130.665219902,-104.568762292,-239.653507971,10.363398003,0.238626259,2.899664451,1.390197234
24368.986000000,0.785268303,-0.000370261,-130.385155556,-104.438628324,-239.344157877,9.982201857,0.220098172,2.919984728,1.388168288
24369.001000000,0.785268095,-0.000370705,-130.143357151,-104.305089232,-239.031274244,9.608248763,0.202659840,2.941772556,1.384839534
24369.013000000,0.785267948,-0.000370959,-129.871046085,-104.187177101,-238.735671684,9.243077872,0.184914020,2.961437570,1.382444914
24369.027000000,0.785267759,-0.000371343,-129.625023721,-104.069464079,-238.441737780,8.885389005,0.168036968,2.981999189,1.379143067
24369.039000000,0.785267592,-0.000371656,-129.370638525,-103.960694164,-238.158216587,8.535857345,0.151258725,3.001556754,1.376105925
24369.051000000,0.785267443,-0.000371914,-129.111712289,-103.859764854,-237.885263938,8.195890571,0.134683364,3.020229114,1.373267205
24369.062000000,0.785267294,-0.000372173,-128.857569135,-103.764388227,-237.619827808,7.864850175,0.118536347,3.038560726,1.370294666
24369.076000000,0.785267104,-0.000372563,-128.626094240,-103.671002638,-237.356684207,7.540442025,0.103220236,3.057899320,1.366466545
24369.089000000,0.785266935,-0.000372883,-128.387285886,-103.585074309,-237.101862277,7.224053395,0.087922447,3.076286486,1.362858944
24369.103000000,0.785266744,-0.000373275,-128.160788523,-103.503387446,-236.851279524,6.914147531,0.073198000,3.095128677,1.358731489
24369.115000000,0.785266593,-0.000373538,-127.920246713,-103.429149001,-236.610582297,6.612620612,0.058265355,3.112422236,1.355254514
24369.130000000,0.785266383,-0.000373990,-127.705458542,-103.357419365,-236.371869091,6.316244076,0.044338840,3.131366531,1.350678881
24369.146000000,0.785266150,-0.000374511,-127.498977688,-103.291076185,-236.136838269,6.024694051,0.030798620,-3.132338411,1.345579256
24369.163000000,0.785265917,-0.000375029,-127.291308268,-103.230605548,-235.905946279,5.737998133,0.017352287,-3.112934692,1.340441515
24369.176000000,0.785265746,-0.000375349,-127.064135953,-103.176163129,-235.684172668,5.460747618,0.003419621,-3.095820939,1.336302765
24369.190000000,0.785265553,-0.000375742,-126.847844492,-103.126865604,-235.469174296,5.190942768,3.131684244,-0.063347267,-1.809848598
24369.205000000,0.785265318,-0.000376098,-126.557115018,-103.145757935,-235.000259732,4.838984322,3.113800970,-0.084905469,-1.828017071
24369.216000000,0.785265141,-0.000376275,-126.254949678,-103.168485459,-234.545486326,4.500976942,3.095462281,-0.103925439,-1.845180542
24369.230000000,0.785264923,-0.000376586,-125.967904114,-103.197362329,-234.102597832,4.171949657,3.077649734,-0.123771686,-1.862990975
24369.243000000,0.785264726,-0.000376833,-125.680443439,-103.229995507,-233.672143658,3.855183477,3.059773126,-0.142291450,-1.880410102
24369.257000000,0.785264507,-0.000377156,-125.403009298,-103.268614276,-233.254563226,3.548777384,3.042303499,-0.161012087,-1.898128816
24369.274000000,0.785264247,-0.000377612,-125.137285078,-103.315359118,-232.849819394,3.251887175,3.025200798,-0.180682928,-1.916471236
24369.286000000,0.785264049,-0.000377876,-124.863526894,-103.361429815,-232.453968409,2.966869485,3.007697065,-0.197684578,-1.933846648
24369.300000000,0.785263828,-0.000378217,-124.598559734,-103.413609105,-232.070984381,2.692322757,2.990531087,-0.214900616,-1.951551174
24369.317000000,0.785263566,-0.000378691,-124.343819063,-103.474935724,-231.701985820,2.427512489,2.973783288,-0.233107698,-1.969854800
24369.332000000,0.785263325,-0.000379102,-124.088836688,-103.538113421,-231.341477714,2.172668404,2.956909785,-0.250104764,-1.987843808
24369.343000000,0.785263142,-0.000379335,-123.831217959,-103.597328036,-230.986470088,1.928369428,2.939698039,-0.264444012,-2.004971328
24369.357000000,0.785262918,-0.000379702,-123.581644476,-103.665966900,-230.643422807,1.692427800,2.922815870,-0.279844573,-2.022811198
24369.370000000,0.785262715,-0.000380007,-123.334120656,-103.735001377,-230.306448328,1.465712183,2.905869489,-0.293984226,-2.040462868
24369.384000000,0.785262489,-0.000380387,-123.092401256,-103.811233865,-229.979537427,1.247978955,2.889083674,-0.308474862,-2.058586147
24369.396000000,0.785262303,-0.000380646,-122.851533137,-103.884379726,-229.654532605,1.037994798,2.872121989,-0.320988149,-2.076252783
24369.411000000,0.785262056,-0.000381096,-122.617447090,-103.971784029,-229.343075770,0.837105677,2.855419077,-0.335269289,-2.095075135
24369.427000000,0.785261786,-0.000381619,-122.386228732,-104.067594058,-229.039979530,0.644509842,2.838688524,-0.349942499,-2.114567436
24369.444000000,0.785261550,-0.000382289,-122.283261855,-104.059195245,-229.137011242,0.570859851,2.835308500,-0.366036427,-2.110497643
24369.457000000,0.785261376,-0.000382765,-122.177838337,-104.042929344,-229.219559619,0.496949198,2.831770633,-0.379636919,-2.105736462
24369.468000000,0.785261220,-0.000383183,-122.072364320,-104.026888223,-229.295591497,0.424569899,2.828278163,-0.392464358,-2.100979570
24369.480000000,0.785261062,-0.000383603,-121.967544985,-104.014616643,-229.368676260,0.354418818,2.824950707,-0.405174762,-2.096452297
24369.495000000,0.785260845,-0.000384209,-121.864433165,-104.019612473,-229.449011207,0.289340617,2.822012526,-0.420050413,-2.093030129
24369.506000000,0.785260686,-0.000384631,-121.761187358,-104.014446290,-229.517808893,0.224107775,2.818985943,-0.432577877,-2.088895450
24369.520000000,0.785260486,-0.000385183,-121.658886244,-104.022654587,-229.590788857,0.163277218,2.816287921,-0.446558462,-2.085551842
24369.533000000,0.785260307,-0.000385668,-121.557323590,-104.028890529,-229.658765366,0.103771885,2.813635542,-0.459611992,-2.082010483
24369.547000000,0.785260105,-0.000386223,-121.456666624,-104.044325436,-229.728272325,0.048102244,2.811245549,-0.473418068,-2.078967452
24369.563000000,0.785259861,-0.000386907,-121.356997285,-104.074489009,-229.802687327,-0.002191729,2.809227765,-0.488633895,-2.076696229
24369.581000000,0.785259598,-0.000387651,-121.257598329,-104.114012487,-229.878004596,-0.048375760,2.807420681,-0.504494462,-2.074870699
24369.598000000,0.785259352,-0.000388337,-121.158531921,-104.152274562,-229.948423929,-0.093015888,2.805676642,-0.519584130,-2.072814298
24369.613000000,0.785259128,-0.000388958,-121.060585994,-104.187766980,-230.014248424,-0.136366496,2.804036482,-0.533771521,-2.070462424
24369.624000000,0.785258964,-0.000389396,-120.964737905,-104.208514033,-230.069958279,-0.181635899,2.802268697,-0.545606460,-2.067310627
24369.638000000,0.785258757,-0.000389965,-120.870168253,-104.244153924,-230.132251188,-0.220453472,2.800952751,-0.558882435,-2.064811054
24369.651000000,0.785258572,-0.000390468,-120.777426105,-104.275448320,-230.190300587,-0.258403441,2.799730597,-0.571214920,-2.061992057
24369.665000000,0.785258364,-0.000391042,-120.685831678,-104.316301323,-230.251684076,-0.291557585,2.798877084,-0.584278401,-2.059523180
24369.677000000,0.785258197,-0.000391491,-120.595654411,-104.346276537,-230.305705532,-0.326771135,2.797933056,-0.595758385,-2.056454035
24369.692000000,0.785257969,-0.000392130,-120.505732389,-104.398770735,-230.368755182,-0.353335109,2.797535043,-0.609403359,-2.054313979
24369.708000000,0.785257718,-0.000392839,-120.416579152,-104.461498620,-230.434358886,-0.374731903,2.797479306,-0.623757767,-2.052487110
24369.725000000,0.785257467,-0.000393550,-120.328935132,-104.527062727,-230.499189689,-0.392985111,2.797599943,-0.638053577,-2.050678654
24369.737000000,0.785257278,-0.000394070,-120.244425763,-104.573052139,-230.553987211,-0.415564699,2.797594916,-0.649874974,-2.047889015
24369.751000000,0.785257066,-0.000394661,-120.160986194,-104.628946801,-230.611928289,-0.433059606,2.797964711,-0.662421345,-2.045393272
24369.768000000,0.785256812,-0.000395383,-120.078096280,-104.702249643,-230.675606305,-0.442776206,2.798872544,-0.676428529,-2.043430947
24369.783000000,0.785256581,-0.000396036,-119.997312557,-104.769621671,-230.735133825,-0.452642641,2.799886821,-0.689489412,-2.041088343
24369.795000000,0.785256408,-0.000396509,-119.919900824,-104.816580110,-230.785578861,-0.467761382,2.800698894,-0.700227591,-2.037835463
24369.809000000,0.785256195,-0.000397112,-119.843993073,-104.880730887,-230.842613818,-0.474790749,2.802159262,-0.712386024,-2.035041610
24369.821000000,0.785256003,-0.000397648,-119.770419242,-104.937875033,-230.896094968,-0.482416200,2.803684488,-0.723591270,-2.031834224
24369.835000000,0.785255788,-0.000398257,-119.697924280,-105.005650289,-230.952784962,-0.484608372,2.805648540,-0.735586813,-2.028822399
24369.847000000,0.785255613,-0.000398743,-119.628496932,-105.058796625,-231.003316286,-0.490521778,2.807554674,-0.745980052,-2.025190647
24369.862000000,0.785255378,-0.000399416,-119.558938194,-105.137317349,-231.061624208,-0.485560541,2.810211077,-0.758472517,-2.022230438
24369.879000000,0.785255120,-0.000400161,-119.490265558,-105.226772046,-231.121918722,-0.474869267,2.813310943,-0.771760430,-2.019465916
24369.895000000,0.785254862,-0.000400910,-119.424187378,-105.318465629,-231.181847778,-0.461120687,2.816824097,-0.784910436,-2.016517034
24369.913000000,0.785254584,-0.000401719,-119.359171150,-105.420071832,-231.243137154,-0.441905945,2.820742978,-0.798695958,-2.013647320
24369.929000000,0.785254324,-0.000402471,-119.295998063,-105.515666191,-231.300735321,-0.423650998,2.824812870,-0.811640202,-2.010360574
24369.947000000,0.785254045,-0.000403285,-119.233926831,-105.621438724,-231.359210128,-0.399810384,2.829429117,-0.825215016,-2.007103730
24369.964000000,0.785253782,-0.000404047,-119.173184997,-105.721617987,-231.413781651,-0.377023105,2.834086191,-0.838078680,-2.003520678
24369.981000000,0.785253502,-0.000404864,-119.113706492,-105.831057345,-231.469060652,-0.348854442,2.839316310,-0.851450130,-1.999849429
24369.998000000,0.785253240,-0.000405624,-119.056188205,-105.934114772,-231.520582440,-0.322121739,2.844711455,-0.864032847,-1.995796290
24370.014000000,0.785252977,-0.000406387,-119.000360817,-106.038453917,-231.570632342,-0.293231343,2.850497335,-0.876491136,-1.991512917
24370.027000000,0.785252778,-0.000406954,-118.947117133,-106.115274083,-231.612826720,-0.275153849,2.855854289,-0.886486233,-1.986361519
24370.038000000,0.785252598,-0.000407466,-118.895761529,-106.184119906,-231.652704529,-0.259185600,2.861333140,-0.895707372,-1.980796584
24370.050000000,0.785252417,-0.000407979,-118.844810431,-106.253925940,-231.691605185,-0.242481363,2.867083636,-0.904879440,-1.975028316
24370.065000000,0.785252176,-0.000408680,-118.794661676,-106.352654376,-231.735122751,-0.211551008,2.873996512,-0.916184782,-1.969510403
24370.077000000,0.785251994,-0.000409196,-118.746697784,-106.423876890,-231.772237217,-0.191802965,2.880448676,-0.925134102,-1.963301586
24370.091000000,0.785251771,-0.000409843,-118.700503682,-106.515353485,-231.812512401,-0.161595213,2.887941721,-0.935467072,-1.957078752
24370.103000000,0.785251570,-0.000410422,-118.655937398,-106.596668167,-231.849836994,-0.134941105,2.895458750,-0.944864172,-1.950426231
24370.117000000,0.785251345,-0.000411073,-118.612662542,-106.689540566,-231.887869280,-0.101930232,2.903732490,-0.954983014,-1.943610812
24370.134000000,0.785251079,-0.000411852,-118.570330516,-106.803562308,-231.927228945,-0.057977502,2.913107187,-0.966511160,-1.936742631
24370.152000000,0.785250793,-0.000412692,-118.529552454,-106.927841243,-231.965995627,-0.008090001,2.923261487,-0.978590938,-1.929589095
24370.168000000,0.785250525,-0.000413475,-118.491323752,-107.043837157,-232.001919328,0.039463412,2.933676353,-0.989846808,-1.921884944
24370.183000000,0.785250280,-0.000414191,-118.454433713,-107.149392234,-232.034620357,0.083091994,2.944246263,-1.000111838,-1.913677261
24370.195000000,0.785250095,-0.000414723,-118.418412701,-107.225627567,-232.062367571,0.112902255,2.954135386,-1.008055387,-1.904877580
24370.209000000,0.785249869,-0.000415382,-118.384107810,-107.322794755,-232.091044110,0.154161571,2.965235968,-1.017357048,-1.895866802
24370.221000000,0.785249664,-0.000415975,-118.350808343,-107.409412851,-232.117230565,0.190813027,2.976420138,-1.025723740,-1.886394309
24370.235000000,0.785249436,-0.000416639,-118.319072481,-107.507800858,-232.143000101,0.234365522,2.988578174,-1.034760236,-1.876530911
24370.247000000,0.785249250,-0.000417176,-118.288397821,-107.585329397,-232.165958312,0.268189850,3.000280884,-1.042135067,-1.866326237
24370.262000000,0.785249003,-0.000417901,-118.260070636,-107.693772119,-232.189665544,0.319011589,3.013992838,-1.051474890,-1.855546581
24370.279000000,0.785248732,-0.000418697,-118.233606039,-107.814529127,-232.211882273,0.377010890,3.028914882,-1.061451808,-1.844137784
24370.295000000,0.785248460,-0.000419494,-118.208663301,-107.935769177,-232.232004198,0.436304253,3.044606033,-1.071252543,-1.832047866
24370.308000000,0.785248253,-0.000420095,-118.183081281,-108.024110074,-232.248660875,0.478629127,3.059167914,-1.078628539,-1.819733727
24370.319000000,0.785248066,-0.000420637,-118.157950872,-108.102432388,-232.263491459,0.516404384,3.073618494,-1.085136266,-1.807185493
24370.331000000,0.785247878,-0.000421179,-118.133263864,-108.180523846,-232.276792880,0.554680460,3.088565929,-1.091509864,-1.794167923
24370.346000000,0.785247628,-0.000421909,-118.111885735,-108.290869369,-232.288901093,0.610808340,3.106049185,-1.099728035,-1.780044170
24370.358000000,0.785247440,-0.000422453,-118.089202607,-108.368773808,-232.299029234,0.650385115,3.122109678,-1.105665922,-1.766066196
24370.372000000,0.785247209,-0.000423127,-118.068982338,-108.469244980,-232.307227382,0.702776226,3.140326356,-1.112853244,-1.750974682
